"world_rank","university_name","country","teaching","international","research","citations","income","total_score","num_students","student_staff_ratio","international_students","female_male_ratio","year","lon","lat","bar_count"
1,"California Institute of Technology","United States of America",95.6,"64.0",97.6,99.8,"97.8","95.2","2,243",6.9,"27%","33 : 67",2016,-118.125269,34.1376576,121
2,"University of Oxford","United Kingdom",86.5,"94.4",98.9,98.8,"73.1","94.2","19,919",11.6,"34%","46 : 54",2016,-117.8273389,33.6504742,47
3,"Stanford University","United States of America",92.5,"76.3",96.2,99.9,"63.3","93.9","15,596",7.8,"22%","42 : 58",2016,-117.8389422,33.6518297,51
4,"University of Cambridge","United Kingdom",88.2,"91.5",96.7,97,"55.0","92.8","18,812",11.8,"34%","46 : 54",2016,0.1177882,52.2016671,161
5,"Massachusetts Institute of Technology","United States of America",89.4,"84.0",88.6,99.7,"95.4","92.0","11,074",9,"33%","37 : 63",2016,-71.0934,42.3591,199
6,"Harvard University","United States of America",83.6,"77.2",99,99.8,"45.2","91.6","20,152",8.9,"25%","",2016,-71.1166286,42.3800977,199
7,"Princeton University","United States of America",85.1,"78.5",91.9,99.3,"52.1","90.1","7,929",8.4,"27%","45 : 55",2016,-74.6582332,40.3492867,28
8,"Imperial College London","United Kingdom",83.3,"96.0",88.5,96.7,"53.7","89.1","15,060",11.7,"51%","37 : 63",2016,-0.1732294,51.5177246,196
9,"ETH Zurich – Swiss Federal Institute of Technology Zurich","Switzerland",77,"97.9",95,91.1,"80.0","88.3","18,178",14.7,"37%","31 : 69",2016,8.541694,47.3768866,198
10,"University of Chicago","United States of America",85.7,"65.0",88.9,99.2,"36.6","87.9","14,221",6.9,"21%","42 : 58",2016,-87.5903039,41.7857416,58
11,"Johns Hopkins University","United States of America",77.6,"70.0",90.4,98.2,"100.0","87.6","15,128",3.6,"23%","50 : 50",2016,-76.6003432,39.3272601,200
12,"Yale University","United States of America",86.5,"64.3",87.8,97.2,"43.3","87.4","11,751",4.4,"20%","50 : 50",2016,-90.315018,38.6595336,121
13,"University of California, Berkeley","United States of America",80.4,"61.9",91.1,99.7,"47.9","87.2","36,186",16.4,"15%","50 : 50",2016,-122.2447958,37.8805941,97
14,"University College London","United Kingdom",78.1,"94.4",91,94.2,"40.5","87.1","26,607",10.7,"46%","56 : 44",2016,-0.1335692,51.5247063,195
15,"Columbia University","United States of America",85.9,"73.5",82.2,98.1,"-","86.1","25,055",5.9,"28%","",2016,-73.9625727,40.8075355,199
16,"University of California, Los Angeles","United States of America",80.8,"56.4",88.6,98.5,"47.9","85.8","38,206",10.3,"15%","52 : 48",2016,-118.4431764,34.0729489,164
17,"University of Pennsylvania","United States of America",82,"49.5",86.9,98.6,"47.9","85.2","20,376",6.5,"20%","51 : 49",2016,-90.3149303,38.6736751,81
18,"Cornell University","United States of America",77.9,"63.9",86.1,97.2,"33.7","84.0","21,424",10.2,"19%","48 : 52",2016,-117.8357356,33.6493781,50
19,"University of Toronto","Canada",75.9,"77.8",89.3,90.9,"49.1","83.9","66,198",19.5,"15%","",2016,-79.4023299,43.666663,200
20,"Duke University","United States of America",76,"56.5",78,99,"100.0","82.7","15,172",4.8,"17%","49 : 51",2016,-117.166351,34.061706,26
21,"University of Michigan","United States of America",76.8,"53.7",85.2,94.4,"56.3","82.4","41,786",9,"16%","48 : 52",2016,-83.7382241,42.2780436,91
22,"Carnegie Mellon University","United States of America",67.4,"57.1",88.8,99.1,"57.5","82.3","11,885",13.1,"35%","39 : 61",2016,-79.9441368,40.4432289,197
23,"London School of Economics and Political Science","United Kingdom",69.8,"93.6",80.6,94.3,"32.2","81.3","",NA,"","",2016,-0.1173766,51.5144077,195
24,"University of Edinburgh","United Kingdom",68.6,"89.8",77.2,96.3,"36.1","80.3","25,774",14.1,"36%","58 : 42",2016,-3.1847238,55.9462691,197
25,"Northwestern University","United States of America",69.8,"53.9",78.4,96.5,"81.2","79.5","18,334",13.8,"15%","48 : 52",2016,-87.6197349,41.8954119,198
26,"National University of Singapore","Singapore",71.7,"96.2",84.5,79.4,"49.8","79.2","31,592",15.5,"34%","49 : 51",2016,7.4674717,45.7399332,15
27,"King’s College London","United Kingdom",64.5,"93.8",75.8,93.8,"40.1","78.2","21,394",11.4,"37%","61 : 39",2016,-0.0890873,51.4699486,193
28,"Karolinska Institute","Sweden",60.6,"73.1",81.1,92.2,"75.8","77.5","7,774",11.5,"22%","70 : 30",2016,18.0214528,59.3494376,200
29,"LMU Munich","Germany",70.5,"62.8",77.4,85.7,"100.0","77.3","35,691",15.5,"13%","62 : 38",2016,11.582443,48.150942,197
30,"New York University","United States of America",74.7,"49.3",72.3,95.3,"30.4","77.2","42,056",6.8,"19%","55 : 45",2016,-106.496973,31.777508,126
31,"École Polytechnique Fédérale de Lausanne","Switzerland",61.3,"98.6",67.5,94.6,"65.4","76.1","9,666",10.5,"54%","27 : 73",2016,6.5676007,46.5189865,87
32,"University of Washington Seattle","United States of America",67.1,"51.2",70,98.6,"43.1","75.6","44,020",11.8,"13%","53 : 47",2016,-122.3102213,47.6698745,193
33,"University of Melbourne","Australia",62,"87.1",75.5,86.6,"64.6","75.4","40,128",23.7,"35%","55 : 45",2016,144.9610796,-37.8013221,198
34,"University of British Columbia","Canada",60.2,"90.5",73.2,91.5,"42.6","75.3","50,152",17.6,"25%","54 : 46",2016,-123.2459939,49.2606052,20
35,"KU Leuven","Belgium",59.9,"68.6",76.9,87.3,"100.0","74.8","42,503",41.9,"18%","54 : 46",2016,4.7005176,50.8798438,83
36,"University of Illinois at Urbana-Champaign","United States of America",64.5,"45.8",81.2,86.8,"52.8","74.5","42,727",18.7,"20%","47 : 53",2016,-88.2271615,40.1019523,78
37,"Heidelberg University","Germany",68.8,"62.8",69.6,88.2,"68.2","74.4","28,881",24.5,"17%","55 : 45",2016,-77.576748,43.1700966,137
38,"McGill University","Canada",66.1,"85.5",72.1,78.9,"40.3","72.6","31,326",13.7,"23%","56 : 44",2016,-113.9836203,46.8624181,51
39,"University of California, San Diego","United States of America",56.9,"42.9",69.8,98.7,"56.7","72.2","27,233",6.5,"11%","48 : 52",2016,-117.2340135,32.8800604,49
39,"University of California, Santa Barbara","United States of America",52.6,"61.5",66,99.2,"90.4","72.2","22,020",27.3,"11%","52 : 48",2016,-117.8082831,33.6858022,63
41,"Georgia Institute of Technology","United States of America",57.8,"71.5",72.7,86,"73.7","72.1","19,967",20.1,"26%","31 : 69",2016,-84.3988806,33.7784626,196
42,"Peking University","China",77.8,"49.2",72.4,69.1,"100.0","72.0","40,148",8.3,"14%","",2016,116.3065393,39.9939231,191
43,"University of Tokyo","Japan",81.4,"30.3",83,60.9,"50.8","71.1","26,199",5.7,"10%","",2016,139.7442192,35.7198647,198
44,"University of California, Davis","United States of America",60.1,"58.4",72.7,84.3,"57.3","71.0","35,364",13.9,"13%","54 : 46",2016,-121.7209826,38.5494919,26
44,"University of Hong Kong","Hong Kong",64.6,"99.5",72.8,70.1,"53.7","71.0","19,835",17.6,"38%","53 : 47",2016,114.1378391,22.2840507,199
46,"University of Texas at Austin","United States of America",59.3,"31.7",69.7,92.2,"63.1","70.3","49,427",17.4,"9%","51 : 49",2016,-97.7335226,30.2850284,196
47,"Tsinghua University","China",73.3,"39.5",83,58.8,"100.0","70.0","39,763",13.7,"10%","32 : 68",2016,116.3246671,39.9990443,193
47,"Wageningen University and Research Center","Netherlands",52.6,"70.3",66.9,87.8,"100.0","70.0","9,248",17,"21%","56 : 44",2016,5.6653948,51.9691868,17
49,"Humboldt University of Berlin","Germany",63.7,"62.6",77,73.6,"36.1","69.9","29,987",52.5,"16%","",2016,13.5333041,52.4321218,77
50,"University of Wisconsin-Madison","United States of America",65.1,"33.0",68.2,86.6,"48.5","69.7","39,655",10.8,"11%","51 : 49",2016,-89.4052247,43.0765915,180
51,"Brown University","United States of America",62.8,"57.8",55.7,96.4,"31.4","69.6","8,653",10.1,"19%","",2016,-83.9617862,43.514033,15
52,"Australian National University","Australia",54.7,"93.3",77.3,72.3,"48.0","69.5","14,604",19.2,"35%","52 : 48",2016,142.389278,-10.890853,NA
53,"Technical University of Munich","Germany",61,"63.8",66,80.1,"99.2","69.4","35,565",31.5,"20%","33 : 67",2016,19.2402603,52.0563394,4
54,"École Normale Supérieure","France",70.6,"85.5",47.7,87.1,"37.1","69.0","2,400",7.9,"20%","46 : 54",2016,-83.8126438,39.7473569,1
55,"Nanyang Technological University","Singapore",48.4,"94.6",61.3,85.6,"99.9","68.2","25,028",16.2,"33%","48 : 52",2016,-120.554501,34.865784,NA
56,"University of Manchester","United Kingdom",58.4,"87.0",66,77.3,"42.0","68.1","34,938",15.3,"34%","52 : 48",2016,-90.3332427,38.6129798,123
56,"University of Sydney","Australia",54.3,"84.4",68.1,77.5,"72.4","68.1","41,868",20.2,"28%","57 : 43",2016,149.6612155,-30.4730963,NA
58,"University of Amsterdam","Netherlands",52.2,"66.5",64.7,87.4,"62.8","67.8","24,570",14.4,"11%","53 : 47",2016,4.9470315,52.3561962,200
59,"Hong Kong University of Science and Technology","Hong Kong",49.4,"80.5",66.1,82.6,"68.1","67.2","11,385",23.8,"36%","",2016,114.2715461,22.2917485,11
60,"The University of Queensland","Australia",49.2,"89.3",62.8,82.4,"76.7","67.0","34,718",32.7,"27%","53 : 47",2016,151.9287869,-27.6061106,9
60,"Washington University in St Louis","United States of America",54.3,"44.9",55.6,99.2,"33.5","67.0","12,528",5.7,"17%","",2016,-90.3308854,38.6846489,84
62,"Utrecht University","Netherlands",48.1,"55.8",64.3,88.1,"89.1","66.6","30,779",15.4,"7%","59 : 41",2016,5.1214201,52.0907374,123
63,"University of North Carolina at Chapel Hill","United States of America",58,"39.0",54.5,95.9,"39.4","66.4","26,518",7.3,"8%","58 : 42",2016,-78.9399682,35.9681485,65
64,"Boston University","United States of America",57.8,"51.0",49.5,97.7,"30.3","66.1","24,789",8.6,"17%","58 : 42",2016,-0.1852592,51.4925846,194
65,"Delft University of Technology","Netherlands",55,"84.0",73.8,61.5,"100.0","65.9","15,920",19.4,"25%","26 : 74",2016,4.3570677,52.0115769,51
65,"University of Minnesota","United States of America",53.5,"35.3",61,88,"98.5","65.9","46,825",18,"13%","52 : 48",2016,-93.199514,44.9743269,147
67,"Leiden University","Netherlands",50.5,"64.3",63.1,85.2,"49.8","65.7","21,222",17.1,"10%","59 : 41",2016,4.481357,52.1569487,57
68,"University of Southern California","United States of America",49.3,"56.3",58.9,93,"38.0","65.5","36,534",12.9,"20%","52 : 48",2016,-117.2914463,34.1036186,31
69,"University of Bristol","United Kingdom",47.6,"82.4",51.6,91.2,"40.0","64.3","17,906",14,"25%","53 : 47",2016,-2.6259899,51.4771065,182
70,"Durham University","United Kingdom",47.9,"86.4",51.9,87.7,"34.4","63.6","15,489",15.7,"24%","54 : 46",2016,-1.5782029,54.7649859,91
71,"Erasmus University Rotterdam","Netherlands",37.2,"76.1",55.2,95.6,"54.6","63.5","20,580",18.9,"18%","48 : 52",2016,4.525585,51.91752,200
72,"Free University of Berlin","Germany",57.9,"69.2",72.2,60.2,"35.1","63.2","33,062",39.3,"20%","58 : 42",2016,13.404954,52.5200066,197
73,"Monash University","Australia",48.1,"87.6",58.5,73.3,"79.7","62.5","50,882",40.5,"36%","56 : 44",2016,145.1340508,-38.1532011,20
74,"University of Groningen","Netherlands",43.3,"63.9",56.9,84,"92.4","62.4","24,556",25.6,"12%","52 : 48",2016,6.5665018,53.2193835,84
75,"Pennsylvania State University","United States of America",50.4,"40.8",61.9,80.5,"56.2","62.3","44,501",12.4,"12%","46 : 54",2016,-77.8608888,40.8072337,46
76,"University of Glasgow","United Kingdom",41.6,"85.8",48.3,92.3,"31.6","61.9","22,616",16,"29%","57 : 43",2016,-4.288761,55.87151,199
76,"University of Helsinki","Finland",48.4,"51.8",60.4,82.1,"31.6","61.9","23,505",15.1,"6%","66 : 34",2016,-99.1698567,19.3049111,200
78,"University of Tübingen","Germany",47,"58.2",59.8,79.3,"59.2","61.7","28,327",38.9,"12%","58 : 42",2016,9.0576448,48.5216364,47
79,"University of Pittsburgh","United States of America",50.6,"33.9",50.3,92.3,"39.3","61.5","26,485",5.8,"10%","51 : 49",2016,-79.960835,40.4443533,198
80,"University of Warwick","United Kingdom",47.4,"90.3",53.1,78.2,"37.7","61.3","18,529",16.6,"37%","48 : 52",2016,-1.563191,52.379411,128
81,"Uppsala University","Sweden",44.1,"59.6",61,80.9,"39.5","61.2","25,266",18.2,"12%","57 : 43",2016,17.6300093,59.8509005,41
82,"University of Copenhagen","Denmark",49.8,"83.3",42.7,86.2,"45.0","61.0","27,545",4.1,"19%","67 : 33",2016,121.0990078,14.6064499,197
82,"University of New South Wales","Australia",40.7,"89.5",53.9,82.1,"50.0","61.0","38,309",25.9,"33%","47 : 53",2016,151.710005,-32.8871981,28
84,"University of Freiburg","Germany",47.4,"60.3",51.1,80.5,"100.0","60.7","26,467",31.2,"16%","52 : 48",2016,7.8493126,48.0028354,121
85,"Seoul National University","South Korea",66.5,"30.9",70.5,50,"85.4","60.5","26,389",13.9,"10%","",2016,126.952712,37.48121,116
86,"University of St Andrews","United Kingdom",49.7,"92.3",47.3,78.8,"30.6","60.4","8,338",12.7,"47%","56 : 44",2016,-2.7930852,56.3412112,35
87,"Vanderbilt University","United States of America",47.8,"29.1",44.2,95.7,"63.2","60.1","12,161",3.6,"10%","52 : 48",2016,-73.7199435,40.7694536,85
88,"Kyoto University","Japan",70.6,"26.1",69.3,46.6,"79.0","59.9","22,809",5.6,"7%","",2016,135.7680294,35.0116363,197
88,"Maastricht University","Netherlands",37.5,"95.5",47.7,82.7,"95.4","59.9","15,626",18.9,"48%","56 : 44",2016,5.6886039,50.8442878,68
90,"Emory University","United States of America",48.3,"51.0",37.1,96.7,"48.9","59.7","12,338",4.5,"18%","56 : 44",2016,-80.627626,28.0658079,50
90,"Lund University","Sweden",39.7,"74.1",53.6,81.3,"70.4","59.7","28,251",11.5,"15%","",2016,-87.7106499,41.9722799,199
90,"Ohio State University","United States of America",51.6,"53.0",46.6,83.2,"53.1","59.7","51,462",13.4,"12%","49 : 51",2016,-83.0227103,39.9993865,200
93,"University of Exeter","United Kingdom",39.4,"87.3",40,94.3,"31.9","59.5","17,755",18.8,"28%","54 : 46",2016,-117.8296666,33.6508563,48
94,"University of Bonn","Germany",45.1,"63.6",47.5,85.3,"-","58.8","32,474",70.4,"13%","55 : 45",2016,121.1009535,14.6051887,197
94,"Georgetown University","United States of America",54.4,"52.7",39.3,82.5,"80.7","58.8","15,408",8.5,"14%","53 : 47",2016,-77.0722585,38.9076089,199
94,"McMaster University","Canada",39.8,"76.1",44.8,84.9,"88.0","58.8","23,823",19.3,"15%","53 : 47",2016,-81.0261039,34.0026819,113
97,"University of Sheffield","United Kingdom",42.4,"81.9",48.8,80.1,"43.4","58.6","23,311",15.5,"31%","50 : 50",2016,-1.48406,53.38071,181
98,"Queen Mary University of London","United Kingdom",34.1,"93.5",41.3,93.3,"36.8","58.5","14,260",14,"40%","52 : 48",2016,-0.0591022,51.5169409,193
99,"University of Göttingen","Germany",49.3,"56.4",54.5,72.7,"31.8","58.0","25,581",25.6,"12%","51 : 49",2016,9.9374004,51.5408116,50
99,"Michigan State University","United States of America",47.3,"56.4",52.6,76.8,"32.2","58.0","44,750",15.7,"15%","51 : 49",2016,-83.7333394,42.2752422,95
101,"University of Basel","Switzerland",39.5,"94.7",33.1,88.3,"99.9","57.9","12,551",17.3,"24%","54 : 46",2016,36.2776484,33.5117629,25
101,"École Polytechnique","France",53.5,"92.8",44.6,64.7,"82.3","57.9","2,429",4.8,"30%","18 : 82",2016,-73.6130801,45.504661,200
101,"Rice University","United States of America",37.9,"66.6",35.1,99.7,"41.7","57.9","6,333",9,"26%","44 : 56",2016,-85.6613123,40.1136943,18
104,"Dartmouth College","United States of America",50.7,"38.3",35.8,93.3,"40.8","57.8","6,178",6.6,"16%","47 : 53",2016,-91.6514459,41.92479,24
104,"University of Zurich","Switzerland",49.5,"90.4",31.5,85.4,"44.0","57.8","26,583",6.5,"19%","57 : 43",2016,8.5595886,47.3588302,198
106,"Aarhus University","Denmark",36.9,"76.8",50.7,79.8,"68.3","57.7","23,895",13.6,"14%","54 : 46",2016,12.1021324,55.695402,NA
106,"University of California, Irvine","United States of America",39.9,"59.2",41.8,91.6,"48.9","57.7","26,614",16.1,"16%","52 : 48",2016,-117.853022,33.664081,112
106,"University of Mannheim","Germany",34.5,"64.6",47.7,86.9,"85.3","57.7","11,761",85.8,"15%","55 : 45",2016,8.4622333,49.4837106,187
108,"University of Notre Dame","United States of America",47.6,"47.6",48.1,81.7,"33.7","57.6","11,829",13.8,"10%","44 : 56",2016,-86.2377772,41.6973401,80
109,"University of Western Australia","Australia",33.4,"92.6",46.1,83.6,"64.5","57.5","20,851",20.7,"27%","50 : 50",2016,150.7397635,-33.7699666,17
110,"RWTH Aachen University","Germany",49.4,"54.1",56.3,63.2,"98.1","57.2","37,917",27.6,"16%","31 : 69",2016,6.0656869,50.7800778,110
110,"University of Southampton","United Kingdom",39.8,"88.4",43.6,82,"37.5","57.2","20,925",13.5,"29%","53 : 47",2016,-1.3962068,50.9340275,182
112,"Scuola Normale Superiore di Pisa","Italy",54.2,"46.3",53.1,67.2,"52.0","57.1","462",16.5,"5%","28 : 72",2016,10.4003296,43.7196006,200
113,"University of Montreal","Canada",46.3,"84.2",45.5,69.6,"92.6","57.0","38,264",20.3,"25%","57 : 43",2016,-90.350862,38.6816147,69
113,"Pierre and Marie Curie University","France",52.8,"74.1",32.7,82.9,"37.4","57.0","27,862",8.7,"18%","48 : 52",2016,2.357499,48.8471036,199
113,"Purdue University","United States of America",50.2,"66.4",57.7,63.2,"-","57.0","39,256",18.1,"22%","42 : 58",2016,-87.0541793,40.4533683,1
116,"Pohang University of Science and Technology","South Korea",49.1,"33.7",47.1,76.7,"100.0","56.9","3,055",10.1,"4%","20 : 80",2016,129.3434808,36.0190178,34
117,"University of Maryland, College Park","United States of America",45,"43.5",42.1,88.2,"32.3","56.7","31,331",8.4,"9%","48 : 52",2016,-76.9367935,38.9920364,36
118,"Ghent University","Belgium",42.1,"54.2",54.5,71.2,"88.3","56.6","32,166",34.1,"9%","57 : 43",2016,-123.1884423,49.2669654,200
119,"University of Birmingham","United Kingdom",39.4,"82.0",41.8,82.7,"34.7","56.2","25,295",16.4,"23%","54 : 46",2016,-1.93668,52.45126,189
120,"University of Bern","Switzerland",40,"83.7",42.5,76.6,"82.9","56.1","14,708",22.5,"14%","54 : 46",2016,121.0977098,14.6037344,197
120,"University of Cape Town","South Africa",34.9,"80.2",38.7,85.6,"92.7","56.1","20,040",12.1,"18%","53 : 47",2016,18.415091,-33.925967,198
120,"University of Florida","United States of America",51.8,"33.3",56.8,67.7,"-","56.1","50,095",18.7,"9%","54 : 46",2016,-80.277027,25.714868,123
123,"University of Erlangen-Nuremberg","Germany",51.7,"47.0",39.7,75.2,"99.4","56.0","36,146",53.9,"9%","49 : 51",2016,11.0045507,49.5978804,66
123,"Rutgers, the State University of New Jersey","United States of America",43.9,"34.7",55.7,75.4,"35.9","56.0","37,032",17.3,"8%","51 : 49",2016,-74.1741891,40.7416983,200
125,"University of Münster","Germany",40.3,"46.3",44.1,85.6,"58.2","55.9","39,838",46.1,"8%","53 : 47",2016,7.6131826,51.9635705,132
125,"Radboud University Nijmegen","Netherlands",34.3,"60.9",48.5,84.9,"39.2","55.9","17,713",13,"10%","58 : 42",2016,5.8372264,51.8125626,83
127,"University of Colorado Boulder","United States of America",39.7,"36.6",37.6,96.4,"35.7","55.8","29,325",16.1,"8%","45 : 55",2016,-105.2627072,40.0071656,95
127,"Tufts University","United States of America",45.2,"49.4",33.3,90.1,"60.7","55.8","10,410",10,"14%","54 : 46",2016,-71.120482,42.4036848,198
129,"Royal Holloway, University of London","United Kingdom",35.1,"92.7",33.2,91.2,"34.4","55.7","8,747",15.9,"37%","57 : 43",2016,-0.5630625,51.425673,70
130,"Lancaster University","United Kingdom",34,"87.0",41.4,85.3,"33.6","55.6","11,512",14.9,"33%","52 : 48",2016,-2.7850105,54.0101034,68
131,"University of Geneva","Switzerland",34.9,"98.5",40.5,78.5,"72.4","55.4","15,668",15,"39%","61 : 39",2016,6.1011686,46.2247046,195
131,"University of York","United Kingdom",41.9,"83.5",46.3,73.1,"31.1","55.4","",NA,"","",2016,-104.9603049,39.6818471,181
133,"Case Western Reserve University","United States of America",46.1,"40.5",33.2,92,"34.1","55.3","9,259",6.4,"17%","48 : 52",2016,-81.6083838,41.5043413,81
133,"University of Leeds","United Kingdom",43.7,"77.4",39,79.2,"36.7","55.3","27,703",14.7,"21%","58 : 42",2016,-82.4315563,28.0637104,62
135,"University of Oslo","Norway",43.3,"68.2",44.7,75.5,"38.3","55.1","27,139",18.8,"18%","",2016,121.0936889,14.6712421,191
136,"Stockholm University","Sweden",34.1,"48.5",51.2,82.5,"31.1","54.8","31,715",23.7,"8%","62 : 38",2016,-81.5636262,41.4685433,53
137,"University of Alberta","Canada",46.4,"80.7",48.1,63.6,"47.4","54.7","36,299",21.6,"23%","55 : 45",2016,-113.5490268,53.4943212,102
138,"Chinese University of Hong Kong","Hong Kong",41.5,"81.1",48.5,68.4,"37.5","54.5","17,916",10.2,"22%","53 : 47",2016,114.203926,22.417442,27
138,"Karlsruhe Institute of Technology","Germany",37.7,"56.7",47.5,73.8,"99.5","54.5","25,294",24.6,"16%","26 : 74",2016,8.4170303,49.0119199,179
140,"University of Sussex","United Kingdom",33.4,"88.3",37.2,86.1,"30.6","54.4","12,001",17.4,"35%","54 : 46",2016,-0.7756403,50.8443366,53
141,"University of Massachusetts","United States of America",40.2,"48.9",36.3,88.1,"52.2","54.3","56,959",13,"11%","49 : 51",2016,-117.3324743,33.9866891,31
142,"University of Vienna","Austria",40.8,"92.6",50.5,63.6,"30.2","54.2","34,651",20.5,"25%","67 : 33",2016,-117.8440006,33.6140008,46
143,"University of Nottingham","United Kingdom",40.3,"80.6",39,77.5,"39.8","54.1","30,144",15,"27%","54 : 46",2016,-1.1951582,52.938636,183
144,"University of California, Santa Cruz","United States of America",31.1,"45.6",34.2,99.9,"36.1","53.9","17,404",22.7,"1%","53 : 47",2016,-117.3163115,33.981043,20
144,"University of Lausanne","Switzerland",30.9,"89.2",45.6,76.2,"56.0","53.9","11,964",13.1,"22%","",2016,6.6528621,46.5287859,117
146,"Autonomous University of Barcelona","Spain",40.3,"50.3",40,83.8,"34.9","53.8","30,538",12.3,"10%","59 : 41",2016,2.1640917,41.3855048,199
147,"University of Virginia","United States of America",38.8,"43.4",37.5,87.3,"37.9","53.3","23,845",10.2,"12%","52 : 48",2016,-93.1147395,44.9494426,133
148,"Korea Advanced Institute of Science and Technology (KAIST)","South Korea",43.3,"33.9",40.5,75.9,"100.0","53.0","9,027",10,"9%","20 : 80",2016,127.3640249,36.3693921,62
149,"University of Adelaide","Australia",32.8,"85.1",43.2,72.4,"79.3","52.9","20,771",30.1,"26%","48 : 52",2016,138.6090143,-34.9103022,200
149,"University of East Anglia","United Kingdom",31.9,"83.5",28.7,92.7,"28.5","52.9","14,992",14.7,"28%","58 : 42",2016,1.2406141,52.6184758,185
149,"University of Twente","Netherlands",34.1,"80.1",45.6,68.8,"91.2","52.9","6,631",12,"26%","37 : 63",2016,6.8524128,52.2410326,45
153,"Sungkyunkwan University (SKKU)","South Korea",51.4,"36.7",53.5,53.8,"97.5","52.8","24,365",20.3,"9%","39 : 61",2016,126.993606,37.588227,141
154,"VU University Amsterdam","Netherlands",28.4,"54.9",37.1,90.7,"60.1","52.5","23,280",16.3,"6%","56 : 44",2016,4.8658302,52.3344753,199
155,"KTH Royal Institute of Technology","Sweden",39,"84.4",44.3,63.9,"78.1","52.4","12,062",14.6,"21%","30 : 70",2016,18.0706645,59.3498065,200
156,"University of Cologne","Germany",42.2,"53.1",38,75,"68.5","52.3","43,280",43.4,"11%","60 : 40",2016,6.9288192,50.9281625,200
157,"University of Liverpool","United Kingdom",32.8,"85.4",30.9,85.9,"36.6","52.2","18,815",13.6,"30%","52 : 48",2016,-2.9655722,53.405936,190
158,"TU Dresden","Germany",41.4,"47.7",45.8,66.1,"99.7","52.1","35,487",37.4,"12%","42 : 58",2016,13.7289964,51.0292734,200
158,"University of Rochester","United States of America",39.7,"55.8",27.9,89,"37.0","52.1","9,390",4.5,"26%","49 : 51",2016,-77.6260033,43.1305531,136
160,"Trinity College Dublin","Republic of Ireland",41.9,"90.5",30.8,75.8,"28.0","52.0","15,521",18,"25%","57 : 43",2016,-6.2576899,53.3454782,193
161,"Lomonosov Moscow State University","Russian Federation",75.4,"57.8",66.7,8.6,"95.7","51.9","30,822",7.7,"20%","43 : 57",2016,37.5286695,55.7039349,141
161,"University of Miami","United States of America",41.7,"64.0",22.3,90.1,"35.5","51.9","15,286",5.7,"14%","50 : 50",2016,-80.2792843,25.7216374,123
163,"University of Arizona","United States of America",38.7,"38.6",41.8,79.5,"32.4","51.7","36,429",12.7,"8%","52 : 48",2016,-82.4530718,28.067177,50
164,"Pompeu Fabra University","Spain",32.9,"63.3",28,90.7,"37.2","51.2","10,901",18.3,"13%","59 : 41",2016,2.1790535,41.3793687,199
164,"University of Reading","United Kingdom",39.3,"85.1",37.3,69.9,"34.2","51.2","12,050",14.8,"28%","55 : 45",2016,-0.948534,51.440262,172
164,"Yeshiva University","United States of America",44.8,"28.5",23.7,92.8,"-","51.2","6,753",5.5,"7%","53 : 47",2016,111.0957348,33.4442576,NA
167,"University of California, Riverside","United States of America",27.5,"59.5",33.3,91.2,"42.5","51.1","20,626",22,"12%","51 : 49",2016,-117.3280644,33.9737055,30
167,"University of Leicester","United Kingdom",32.1,"86.6",27.8,86,"31.7","51.1","14,541",13.4,"35%","54 : 46",2016,-1.1064677,52.6084655,184
167,"National Taiwan University","Taiwan",54.1,"27.7",58,47.3,"49.6","51.1","31,891",11.9,"7%","39 : 61",2016,121.518577,25.041471,199
167,"Technical University of Denmark","Denmark",37.3,"85.1",29.9,77.8,"50.0","51.1","9,990",5,"18%","27 : 73",2016,9.9785216,57.0149963,33
167,"Université Catholique de Louvain","Belgium",38.7,"74.2",40.6,68.4,"51.0","51.1","28,856",42,"19%","54 : 46",2016,4.4482526,50.4079951,35
172,"University of Aberdeen","United Kingdom",29.7,"91.4",31.4,82.6,"43.1","51.0","12,938",15.8,"33%","54 : 46",2016,-82.4317193,28.0653457,63
172,"University of Auckland","New Zealand",31.4,"90.5",39.5,69.8,"78.0","51.0","29,787",18.9,"28%","54 : 46",2016,174.7699782,-36.8490661,200
174,"University of Barcelona","Spain",38.5,"49.2",37.4,78.9,"31.1","50.9","47,491",12.2,"10%","62 : 38",2016,-117.8207002,33.6766692,69
175,"University of Konstanz","Germany",38.5,"58.3",46.7,61.9,"92.4","50.8","10,930",59.1,"12%","54 : 46",2016,-112.0125261,33.3752269,14
176,"Eindhoven University of Technology","Netherlands",34.3,"71.3",41,70.7,"57.3","50.6","8,176",16,"14%","19 : 81",2016,5.4907148,51.4486098,103
176,"University College Dublin","Republic of Ireland",35,"86.3",38.5,70.8,"33.5","50.6","22,193",24.5,"23%","",2016,-6.2168851,53.305257,194
178,"Hebrew University of Jerusalem","Israel",45.8,"55.6",41.4,64.6,"31.9","50.5","17,612",10.7,"5%","55 : 45",2016,35.196198,31.779193,96
179,"University of Waterloo","Canada",35.4,"74.4",43.9,66.5,"39.5","50.3","30,726",24.2,"14%","45 : 55",2016,-80.541671,43.473289,70
180,"University of Gothenburg","Sweden",28.5,"58.3",39.8,81.8,"30.3","50.2","26,420",16.4,"12%","",2016,11.9853213,57.6954209,192
180,"Scuola Superiore Sant’Anna","Italy",42.5,"45.2",23.2,84.5,"71.2","50.2","769",8.5,"17%","35 : 65",2016,10.4027859,43.7209661,200
182,"University of Bergen","Norway",32.5,"70.0",31.5,82.4,"36.2","50.1","11,623",11.1,"12%","60 : 40",2016,-74.1913563,40.7424432,200
182,"Cardiff University","United Kingdom",30.9,"78.1",31.6,82,"34.6","50.1","23,347",13.1,"23%","57 : 43",2016,-3.1868361,51.4919075,190
182,"University of Utah","United States of America",35.6,"30.1",35.3,83.7,"57.4","50.1","25,674",16.9,"9%","45 : 55",2016,-111.8884532,33.4249307,94
185,"Brandeis University","United States of America",28.3,"47.0",25.7,97.3,"38.6","49.9","5,495",12.6,"22%","55 : 45",2016,-85.7551276,38.2190053,198
185,"University of Dundee","United Kingdom",25.6,"78.5",26.9,90.2,"49.5","49.9","11,628",15.3,"25%","60 : 40",2016,-82.4316809,28.0619082,63
185,"University of Würzburg","Germany",34.6,"50.9",35.8,79.1,"47.9","49.9","26,576",38.4,"8%","57 : 43",2016,9.9533548,49.7913044,110
188,"Paris-Sud University","France",38.7,"64.2",29,79.8,"28.8","49.8","27,603",15,"17%","",2016,2.1764839,48.6976847,59
189,"Arizona State University","United States of America",32.4,"31.9",38.1,84.6,"32.0","49.7","83,236",29.9,"9%","50 : 50",2016,-111.9339825,33.4205343,101
190,"University of Antwerp","Belgium",31.6,"64.8",40.8,71.7,"60.3","49.6","12,346",30.3,"16%","56 : 44",2016,4.4102318,51.2228097,200
190,"Boston College","United States of America",34.1,"60.0",29.3,83.3,"46.8","49.6","13,216",17.4,"19%","54 : 46",2016,-0.0147452,52.9733763,53
192,"Ulm University","Germany",35.2,"58.2",23.9,86.4,"58.4","49.5","9,187",11.2,"10%","47 : 53",2016,-92.0610366,32.5320588,28
193,"University of Luxembourg","Luxembourg",25,"99.8",26.7,84.8,"38.1","49.4","5,144",15.9,"52%","50 : 50",2016,5.948386,49.504254,41
193,"Texas A&M University","United States of America",49.4,"47.8",52.4,47.1,"46.4","49.4","50,657",21.4,"9%","47 : 53",2016,-99.9018131,31.9685988,1
195,"Charité - Universitätsmedizin Berlin","Germany",37.3,"61.1",22.2,83.8,"68.4","49.3","6,853",6.6,"16%","64 : 36",2016,13.3766245,52.5264618,198
196,"Newcastle University","United Kingdom",30.9,"84.3",27.5,81.5,"34.7","49.2","20,174",15.2,"29%","50 : 50",2016,151.710005,-32.8871981,28
196,"St George’s, University of London","United Kingdom",25.6,"69.5",18.1,100,"37.7","49.2","2,958",13.4,"17%","61 : 39",2016,-0.1745034,51.4271937,192
198,"University of Trento","Italy",30.8,"55.9",27.4,87.7,"47.1","49.1","16,841",43.2,"8%","51 : 49",2016,11.1231165,46.0667967,199
199,"Paris Diderot University – Paris 7","France",30.5,"64.9",22.9,91,"29.0","48.9","27,756",14.8,"17%","63 : 37",2016,2.3075232,48.8588342,198
200,"Queen’s University Belfast","United Kingdom",34.1,"93.4",33.3,68.9,"35.7","48.8","17,940",17.9,"30%","54 : 46",2016,-5.9340494,54.5844087,199
NA,"Aalborg University","Denmark",25.1,"71.0",28.4,73.8,"43.7","-","17,422",15.9,"15%","48 : 52",2016,9.9818527,57.0145665,25
NA,"Birkbeck, University of London","United Kingdom",33.5,"89.9",35.1,66.3,"28.5","-","9,454",17.2,"38%","55 : 45",2016,-0.130217,51.5219285,195
NA,"University of Bologna","Italy",39.3,"39.9",29.5,73,"34.5","-","85,532",22.9,"7%","56 : 44",2016,-97.379464,32.7170887,130
NA,"University at Buffalo","United States of America",36.5,"60.6",37.9,62,"43.8","-","25,668",19,"19%","47 : 53",2016,-82.3457627,36.3051823,23
NA,"University of Calgary","Canada",33.9,"70.1",36.7,67.8,"52.0","-","28,341",16.5,"17%","53 : 47",2016,-114.1358007,51.0781599,75
NA,"Chalmers University of Technology","Sweden",36.6,"77.6",35.3,52.2,"79.5","-","8,605",11.6,"15%","30 : 70",2016,11.9777584,57.6883684,188
NA,"City University of Hong Kong","Hong Kong",32.1,"81.6",26.7,76.8,"50.1","-","10,015",7.1,"28%","51 : 49",2016,114.1720025,22.3374868,199
NA,"Copenhagen Business School","Denmark",19.3,"88.5",26.5,79.4,"35.3","-","18,293",42.7,"19%","48 : 52",2016,12.529679,55.681611,200
NA,"Dalhousie University","Canada",30.4,"78.3",29.4,65.2,"50.3","-","15,064",14.4,"18%","55 : 45",2016,-97.1453994,49.7887693,15
NA,"University of Duisburg-Essen","Germany",32.3,"48.5",27,81.3,"82.3","-","36,051",46.6,"11%","49 : 51",2016,6.8009529,51.4277477,79
NA,"École Normale Supérieure de Lyon","France",41.6,"65.6",30,69,"31.7","-","2,218",8,"14%","49 : 51",2016,4.829049,45.731469,198
NA,"Florida State University","United States of America",38.5,"41.6",40.1,64.7,"32.0","-","41,226",31.8,"7%","55 : 45",2016,-84.2984889,30.4418778,93
NA,"University of Fribourg","Switzerland",32.3,"87.4",32.9,64.1,"60.8","-","10,416",46.9,"19%","58 : 42",2016,7.152006,46.806357,36
NA,"Fudan University","China",44.7,"38.6",30.4,61.1,"28.0","-","32,175",12.2,"11%","50 : 50",2016,121.5014465,31.2985307,196
NA,"George Washington University","United States of America",44.7,"48.1",23.5,65.7,"29.5","-","20,541",12,"16%","56 : 44",2016,-77.0470916,38.8991756,199
NA,"Goethe University Frankfurt","Germany",35.8,"60.2",28.6,79.3,"38.1","-","31,861",9.3,"15%","60 : 40",2016,8.6293081,50.1703746,47
NA,"University of Hawai’i at Mānoa","Unisted States of America",32,"63.4",35.5,67.7,"44.7","-","",NA,"","",2016,-157.818968,21.3,199
NA,"Hong Kong Polytechnic University","Hong Kong",29.3,"79.0",35.2,63.3,"45.1","-","22,064",25.9,"26%","51 : 49",2016,114.178928,22.302516,198
NA,"University of Illinois at Chicago","United States of America",40.9,"58.1",29.2,63.2,"38.0","-","24,313",9.2,"17%","53 : 47",2016,-117.3484801,33.9690772,36
NA,"Indiana University","United States of America",43,"41.2",27.3,74.8,"-","-","62,468",13.6,"13%","53 : 47",2016,-86.5269373,39.1670467,58
NA,"University of Iowa","United States of America",41,"32.3",26.7,73.5,"54.1","-","27,526",11.6,"11%","52 : 48",2016,-117.3398859,33.9790905,31
NA,"Johannes Gutenberg University of Mainz","Germany",34.9,"53.3",21.7,72.6,"70.7","-","35,609",32.6,"10%","58 : 42",2016,8.2415552,49.9926403,149
NA,"Joseph Fourier University","France",34.2,"58.6",21.6,83.2,"31.6","-","16,130",12.1,"13%","",2016,4.915197,44.91763,172
NA,"University of Kiel","Germany",32.3,"49.4",20.5,89.5,"-","-","24,444",23.8,"8%","53 : 47",2016,10.1147022,54.3460549,115
NA,"Laval University","Canada",37.5,"63.8",31.7,62.2,"57.5","-","27,227",16.2,"12%","",2016,-71.2747424,46.7817463,75
NA,"Medical University of Vienna","Austria",26.6,"81.7",14.6,89.1,"33.9","-","7,426",2.9,"28%","50 : 50",2016,16.351571,48.219673,200
NA,"Northeastern University","United States of America",35.5,"58.7",20.6,84,"32.9","-","18,539",15.1,"26%","50 : 50",2016,-71.0894884,42.340082,198
NA,"Oregon Health and Science University","United States of America",27.8,"21.4",15.7,96,"44.6","-","2,838",1.1,"3%","65 : 35",2016,-122.6859419,45.499045,197
NA,"University of Otago","New Zealand",30.7,"89.9",30.5,74.9,"31.5","-","18,600",20.3,"21%","57 : 43",2016,170.513132,-45.863208,75
NA,"University of Ottawa","Canada",37.1,"69.9",36.7,61.5,"41.5","-","36,733",26.3,"15%","60 : 40",2016,-75.6828,45.4248599,197
NA,"Paris Descartes University","France",24.6,"49.1",28.8,83.3,"29.0","-","34,691",26.9,"15%","63 : 37",2016,2.340761,48.851251,198
NA,"Peter the Great St Petersburg Polytechnic University","Russian Federation",30.8,"29.6",17.8,97.4,"42.5","-","17,155",7.2,"8%","40 : 60",2016,30.372899,60.007357,120
NA,"Polytechnic University of Milan","Italy",30.1,"48.8",31.7,76.3,"66.3","-","30,025",22.2,"12%","34 : 66",2016,9.2272764,45.4781071,200
NA,"Royal Veterinary College","United Kingdom",26,"81.7",27.8,74.9,"45.5","-","1,819",10.9,"18%","77 : 23",2016,-0.1335335,51.536454,196
NA,"Rush University","United States of America",37.7,"21.8",17.4,88.9,"45.4","-","1,855",2.1,"5%","71 : 29",2016,-87.6695315,41.8736016,199
NA,"Sapienza University of Rome","Italy",38,"34.7",37.3,61.5,"32.6","-","120,986",32.3,"7%","59 : 41",2016,12.5144384,41.9037626,199
NA,"University of Science and Technology of China","China",46.7,"21.4",36.6,67.2,"80.3","-","14,290",7.9,"2%","",2016,117.26217,31.838698,174
NA,"University of South Florida","United States of America",24.8,"45.1",35.7,73.4,"99.8","-","31,424",21.5,"10%","",2016,-82.4138539,28.0587031,63
NA,"Stony Brook University","United States of America",32.6,"53.2",22,83,"33.4","-","21,908",10.9,"24%","50 : 50",2016,-73.1146681,40.9098883,19
NA,"University of Stuttgart","Germany",40,"52.7",44.5,55.7,"99.8","-","24,099",45.4,"20%","31 : 69",2016,9.1747024,48.7815352,200
NA,"Swedish University of Agricultural Sciences","Sweden",31.5,"40.1",32.8,68.1,"99.9","-","3,879",4.6,"","67 : 33",2016,17.6628688,59.814947,17
NA,"Technical University of Darmstadt","Germany",37.1,"54.4",43.2,51.1,"99.1","-","20,300",53.6,"18%","28 : 72",2016,8.6568726,49.8751004,87
NA,"University of Technology Sydney","Australia",27,"90.1",35.1,66.9,"42.3","-","24,519",44.1,"31%","53 : 47",2016,151.2004942,-33.8832376,197
NA,"Tel Aviv University","Israel",41,"47.5",50.5,49.2,"42.9","-","23,977",24.4,"4%","",2016,34.8046043,32.1036332,200
NA,"University of Texas at Dallas","United States of America",24.3,"52.3",26.7,86.8,"41.8","-","16,306",22.8,"23%","44 : 56",2016,-96.7500993,32.9857619,60
NA,"Tilburg University","Netherlands",34.1,"71.6",47.1,51.5,"57.4","-","7,576",22.4,"10%","49 : 51",2016,5.0419736,51.5631406,63
NA,"Tohoku University","Japan",45.3,"29.3",42.7,49.4,"74.7","-","17,200",5,"7%","25 : 75",2016,140.874074,38.253834,200
NA,"Tokyo Institute of Technology","Japan",45.6,"31.9",47.6,42.2,"70.9","-","9,586",7.3,"13%","13 : 87",2016,139.6835302,35.6051229,200
NA,"University of Victoria","Canada",20.6,"70.2",30,79,"36.6","-","17,581",21.5,"11%","56 : 44",2016,-117.8567958,33.6304814,68
NA,"Wake Forest University","United States of America",34.6,"24.2",19.5,94.8,"42.5","-","7,326",4.6,"5%","51 : 49",2016,-76.9359658,38.97546,37
NA,"University of Western Ontario","Canada",38.6,"73.6",32.4,59,"59.7","-","27,387",20.7,"16%","54 : 46",2016,-81.2769422,43.0010299,75
NA,"William & Mary","United States of America",38.5,"26.6",17.5,85,"29.1","-","7,867",11.8,"7%","54 : 46",2016,-77.1485163,37.7372121,NA
NA,"University of the Witwatersrand","South Africa",26.2,"68.4",31.5,76,"99.7","-","23,321",18.6,"9%","56 : 44",2016,28.0305044,-26.1930344,123
NA,"Aalto University","Finland",31.1,"65.4",32.8,62.1,"61.6","-","16,099",24.2,"17%","32 : 68",2016,24.827682,60.1866693,36
NA,"Aix-Marseille University","France",36.7,"63.0",22.1,64.9,"33.1","-","71,749",45.5,"13%","61 : 39",2016,5.3591422,43.2922146,200
NA,"University of Bath","United Kingdom",28.9,"84.8",27.9,56.7,"36.3","-","12,830",18.8,"30%","46 : 54",2016,-2.3272635,51.3781162,174
NA,"Bayreuth University","Germany",32.2,"52.6",31.2,60.1,"56.4","-","12,520",35.5,"8%","46 : 54",2016,11.585831,49.9288196,44
NA,"Bielefeld University","Germany",35.2,"45.4",46.2,49.9,"60.9","-","21,428",67.8,"8%","57 : 43",2016,8.4963449,52.0354177,77
NA,"University of Bordeaux","France",25.3,"54.6",22,71.7,"30.6","-","51,239",19.4,"12%","58 : 42",2016,-0.5707764,44.830485,199
NA,"Charles Darwin University","Australia",17.8,"63.7",22.6,85.9,"43.2","-","5,570",25.4,"15%","67 : 33",2016,130.8689199,-12.3717852,16
NA,"Colorado School of Mines","United States of America",28.5,"35.5",30.3,71.8,"83.7","-","5,287",18.2,"12%","26 : 74",2016,-105.2344334,39.7458208,23
NA,"Colorado State University","United States of America",31.6,"34.5",33,59.3,"41.0","-","26,769",19,"5%","52 : 48",2016,-105.0807072,40.5747751,109
NA,"University of Delaware","United States of America",23.7,"41.6",34,70,"98.7","-","19,262",15.9,"10%","56 : 44",2016,-117.7759092,33.7105331,33
NA,"Flinders University","Australia",21.4,"64.7",25.7,69.5,"41.7","-","15,655",22.6,"15%","63 : 37",2016,138.5713281,-35.0244952,18
NA,"University of Georgia","United States of America",41.1,"39.2",30.5,52.2,"30.9","-","33,119",19.9,"7%","57 : 43",2016,44.779722,41.7229257,155
NA,"Griffith University","Australia",22.5,"81.7",25.2,66.3,"34.6","-","30,251",22,"21%","",2016,153.053674,-27.5536791,28
NA,"University of Iceland","Iceland",16.2,"61.0",16.2,91.4,"28.0","-","13,960",25.9,"8%","66 : 34",2016,-21.9518896,64.1396203,75
NA,"Indian Institute of Science","India",42.7,"16.4",47.2,42.4,"52.4","-","3,318",8.2,"1%","19 : 81",2016,77.5671423,13.0218597,196
NA,"Iowa State University","United States of America",31.2,"35.4",29.4,61.5,"54.0","-","29,991",17.4,"11%","44 : 56",2016,-93.6396252,42.0277899,39
NA,"James Cook University","Australia",19,"70.4",22.8,81.4,"40.7","-","11,713",21.9,"11%","63 : 37",2016,146.7580624,-19.3275726,11
NA,"Justus Liebig University Giessen","Germany",32.9,"46.8",33.9,52.9,"46.4","-","25,682",53.9,"9%","62 : 38",2016,8.6771313,50.5804427,57
NA,"King Abdulaziz University","Saudi Arabia",23.9,"93.0",11.8,76.6,"73.1","-","35,889",8.4,"21%","57 : 43",2016,39.2457769,21.4938519,10
NA,"Koç University","Turkey",21.2,"53.5",27.1,74.9,"82.4","-","4,488",14.6,"8%","52 : 48",2016,29.0732704,41.2053128,5
NA,"Korea University","South Korea",43.9,"40.2",43.4,41.8,"99.8","-","24,043",15.8,"14%","",2016,127.035859,37.590401,102
NA,"University of Liège","Belgium",29.1,"69.7",36.6,46.5,"98.9","-","20,951",25.9,"23%","54 : 46",2016,5.559064,50.5830803,12
NA,"Linköping University","Sweden",24.2,"57.7",18.9,76.8,"42.1","-","17,866",7.7,"10%","52 : 48",2016,15.5760072,58.3978364,30
NA,"Nanjing University","China",37.2,"50.4",32.2,54.2,"58.6","-","29,743",13.3,"10%","46 : 54",2016,118.7809448,32.0569463,197
NA,"National Tsing Hua University","Taiwan",37.7,"23.2",36.6,53,"49.5","-","10,221",13.5,"5%","33 : 67",2016,120.99678,24.797079,104
NA,"National University of Ireland, Galway","Republic of Ireland",27.3,"76.5",25.4,68.5,"41.9","-","14,067",26.8,"14%","56 : 44",2016,-9.061603,53.276645,100
NA,"University of Newcastle","Australia",27.4,"75.9",26.5,67.2,"64.4","-","23,508",21.9,"18%","56 : 44",2016,151.7041775,-32.8927718,30
NA,"North Carolina State University","United States of America",36.1,"49.0",30.5,60,"40.7","-","30,533",13.6,"11%","44 : 56",2016,-78.6820946,35.7846633,159
NA,"Oregon State University","United States of America",30.6,"42.8",28.5,63.8,"32.1","-","22,578",16.8,"9%","47 : 53",2016,-123.2794442,44.5637806,39
NA,"Osaka University","Japan",46.8,"26.6",45.2,37.4,"76.1","-","23,144",7.8,"9%","31 : 69",2016,-99.1462101,19.2848865,200
NA,"Queen’s University","Canada",35.8,"61.6",35.8,54.4,"54.2","-","20,488",22.1,"10%","58 : 42",2016,-73.7948516,40.7282239,200
NA,"Queensland University of Technology","Australia",28.8,"76.0",35.6,56,"73.7","-","33,391",35.8,"17%","54 : 46",2016,153.0284231,-27.477356,196
NA,"Rensselaer Polytechnic Institute","United States of America",30.4,"40.3",31.5,65.1,"79.6","-","6,671",15,"16%","30 : 70",2016,-73.6788026,42.730172,47
NA,"Royal College of Surgeons in Ireland","Republic of Ireland",29.9,"90.1",20.1,65.3,"33.9","-","2,473",15.6,"63%","55 : 45",2016,-6.261986,53.338985,193
NA,"Ruhr University Bochum","Germany",32.8,"51.7",30,54.4,"66.6","-","38,675",46.3,"13%","48 : 52",2016,7.2616093,51.4456659,77
NA,"Saint Louis University","United States of America",36.9,"26.6",10.9,85,"29.9","-","11,919",5.8,"8%","58 : 42",2016,-90.2373647,38.6354092,198
NA,"University of São Paulo","Brazil",59.1,"25.3",57.1,20.4,"30.5","-","81,402",14.6,"4%","48 : 52",2016,-46.7307891,-23.5613991,200
NA,"Simon Fraser University","Canada",23.2,"61.4",29.2,72.8,"42.3","-","26,640",28.3,"19%","55 : 45",2016,-122.9198833,49.2780937,26
NA,"University of Surrey","United Kingdom",31.7,"90.4",28.9,51.2,"34.9","-","12,063",16.6,"38%","55 : 45",2016,-0.5904827,51.2423009,82
NA,"Syracuse University","United States of America",31.4,"38.3",20.8,77.1,"36.3","-","19,660",15.9,"15%","55 : 45",2016,-76.1351158,43.0391534,130
NA,"University of Tasmania","Australia",21.8,"79.1",25.7,68,"42.7","-","18,340",23.8,"21%","57 : 43",2016,147.3266391,-42.9035119,95
NA,"University of Tennessee, Knoxville","United States of America",29.5,"39.3",23.2,81.4,"41.3","-","24,716",17,"5%","",2016,-83.9294564,35.9544013,85
NA,"Tomsk Polytechnic University","Russian Federation",31.6,"32.7",15.1,82.4,"60.2","-","11,902",6.9,"17%","39 : 61",2016,84.950135,56.465427,128
NA,"Tulane University","United States of America",39.1,"35.3",19.3,67.8,"32.4","-","11,381",8.4,"8%","56 : 44",2016,-90.3302509,38.6628918,94
NA,"Umeå University","Sweden",20.8,"56.1",25,74.5,"31.1","-","16,667",11.9,"7%","60 : 40",2016,20.3116101,63.8215945,19
NA,"Vienna University of Technology","Austria",34.1,"77.3",32,54.6,"86.5","-","26,419",52,"27%","27 : 73",2016,16.3684626,48.1986546,200
NA,"Virginia Polytechnic Institute and State University","United States of America",34.9,"29.5",38.2,54.2,"43.3","-","30,850",18.6,"10%","42 : 58",2016,-80.4234167,37.2283843,23
NA,"University of Wollongong","Australia",25.8,"86.8",28.4,59.3,"57.9","-","16,489",25.4,"24%","50 : 50",2016,150.87843,-34.4054039,59
NA,"Zhejiang University","China",44.3,"19.6",46,36.1,"96.2","-","47,508",15.9,"5%","41 : 59",2016,120.1689207,30.2929634,195
NA,"Aberystwyth University","United Kingdom",21.6,"72.2",18.9,67.2,"31.3","-","9,252",19.2,"18%","48 : 52",2016,-4.0632712,52.4153984,36
NA,"University of Alaska Fairbanks","United States of America",25.1,"53.5",23.1,63,"51.2","-","3,837",8.2,"7%","53 : 47",2016,-147.8364611,64.8575556,16
NA,"Autonomous University of Madrid","Spain",35.6,"48.6",30.9,46.9,"33.0","-","28,296",13,"15%","56 : 44",2016,-3.6943619,40.5466983,153
NA,"Bangor University","United Kingdom",22.6,"81.3",22.1,65.4,"31.0","-","9,567",19.5,"22%","55 : 45",2016,-4.1299874,53.2295205,44
NA,"University of Bremen","Germany",30.9,"50.0",32.7,50,"46.0","-","18,590",25.6,"11%","50 : 50",2016,8.85204,53.106758,193
NA,"University of Cincinnati","United States of America",31.3,"28.3",20.4,72.1,"35.3","-","36,108",15.7,"6%","54 : 46",2016,-84.5138565,39.1288979,199
NA,"University of Connecticut","United States of America",35.9,"43.1",25.6,57,"30.9","-","25,742",13,"11%","51 : 49",2016,-72.2539805,41.8077414,3
NA,"Deakin University","Australia",22.4,"76.9",21.9,66.8,"30.0","-","32,713",30.4,"17%","60 : 40",2016,145.1149452,-37.8477381,19
NA,"University of Essex","United Kingdom",33.9,"93.7",33.3,38.6,"28.9","-","12,695",19.8,"39%","55 : 45",2016,-83.0524629,40.0024922,168
NA,"George Mason University","United States of America",29.6,"36.9",21.2,64.9,"29.1","-","26,622",17,"7%","54 : 46",2016,-77.3115849,38.8343675,37
NA,"University of Greifswald","Germany",30.1,"41.7",23.5,61.3,"32.6","-","10,931",24,"6%","55 : 45",2016,13.3746917,54.0949312,13
NA,"Gwangju Institute of Science and Technology","South Korea",35.2,"36.2",42,43.7,"45.2","-","1,394",9.6,"8%","25 : 75",2016,126.8407202,35.2272692,21
NA,"University of Hohenheim","Germany",30.9,"50.3",33.8,51.5,"52.8","-","9,163",41.2,"13%","56 : 44",2016,9.2139326,48.7119251,45
NA,"University of Innsbruck","Austria",23.6,"95.7",16.9,67.3,"39.9","-","18,209",16.9,"39%","54 : 46",2016,-81.2365003,28.5527426,30
NA,"Kazan Federal University","Russian Federation",21.9,"25.5",12.3,87.5,"42.4","-","23,321",12.2,"6%","69 : 31",2016,49.1214348,55.790447,189
NA,"University of Kent","United Kingdom",24.6,"87.2",19.1,60.9,"28.8","-","17,638",14.4,"27%","53 : 47",2016,1.071629,51.298536,98
NA,"Leibniz University of Hanover","Germany",36.5,"43.2",36.9,39,"69.6","-","22,401",62.7,"12%","41 : 59",2016,9.7196989,52.3829641,200
NA,"Macquarie University","Australia",28.5,"90.0",27.2,52.3,"33.1","-","27,930",20,"44%","55 : 45",2016,151.1185824,-33.7775092,38
NA,"Medical College of Wisconsin","United States of America",25.4,"30.4",12.1,85.2,"31.8","-","1,211",0.6,"5%","48 : 52",2016,-88.020103,43.043967,165
NA,"University of Milan","Italy",30.5,"37.7",24.2,64.8,"40.9","-","58,618",24.3,"5%","60 : 40",2016,9.1945843,45.4601435,200
NA,"University of Milan-Bicocca","Italy",24.3,"34.3",25.5,65.8,"46.6","-","33,370",72.5,"5%","60 : 40",2016,9.213452,45.518383,200
NA,"Montpellier University","France",38.7,"54.4",16.7,59.5,"31.9","-","36,731",18.4,"14%","51 : 49",2016,3.8603619,43.6319555,200
NA,"Nagoya University","Japan",40.8,"27.4",38.9,40.1,"91.4","-","15,529",7.9,"10%","29 : 71",2016,136.967573,35.153491,196
NA,"University of Naples Federico II","Italy",24.7,"21.1",14.8,81.3,"47.4","-","83,653",64.2,"1%","",2016,14.2578058,40.845492,200
NA,"National Chiao Tung University","Taiwan",32.9,"32.0",45.4,34.2,"96.9","-","12,646",16.6,"5%","27 : 73",2016,120.294197,22.925346,3
NA,"National Research Nuclear University MePhI","Russian Federation",43.9,"27.5",24.1,52.8,"28.1","-","7,801",7.3,"7%","29 : 71",2016,37.6638741,55.649567,83
NA,"National Taiwan University of Science and Technology (Taiwan Tech)","Taiwan",31.7,"30.5",43.1,39.1,"92.2","-","7,446",17.4,"11%","34 : 66",2016,121.5416515,25.0130679,199
NA,"University of Navarra","Spain",31.9,"52.6",20.8,57.5,"63.5","-","11,259",10.6,"16%","52 : 48",2016,-1.6582784,42.8024726,200
NA,"University of Nebraska-Lincoln","United States of America",30.1,"45.8",30.2,53.5,"35.6","-","21,789",16.4,"9%","46 : 54",2016,-96.7004763,40.8201966,116
NA,"Örebro University","Sweden",18.3,"39.4",10.4,87.8,"29.8","-","8,788",15.8,"2%","61 : 39",2016,15.24923,59.254276,22
NA,"University of Oregon","United States of America",21.2,"33.5",22.7,72.6,"30.8","-","24,418",20.2,"11%","52 : 48",2016,-123.0726055,44.0448302,122
NA,"University of Padua","Italy",25.7,"37.9",22.6,74.6,"32.6","-","62,577",18.3,"4%","56 : 44",2016,11.8774462,45.406766,198
NA,"University of Pavia","Italy",25,"40.5",22.5,65.1,"69.4","-","22,958",40.6,"6%","56 : 44",2016,9.1555362,45.1864597,182
NA,"Plymouth University","United Kingdom",19.3,"64.0",18,75.2,"28.5","-","24,121",25.9,"13%","52 : 48",2016,-4.1406465,50.3745284,181
NA,"Shanghai Jiao Tong University","China",37.8,"27.5",45.2,34,"92.9","-","38,191",12.8,"6%","37 : 63",2016,121.4337784,31.0252201,30
NA,"University of Southern Denmark","Denmark",19.2,"71.8",14.7,79.7,"28.0","-","22,210",12.7,"16%","52 : 48",2016,10.4280674,55.3706746,78
NA,"Stellenbosch University","South Africa",28.2,"49.8",35,46.9,"100.0","-","21,849",23,"8%","53 : 47",2016,18.864447,-33.9328078,28
NA,"University of Strasbourg","France",25.5,"71.6",23.4,64.4,"32.8","-","46,208",17.8,"21%","58 : 42",2016,-117.7779478,33.6833384,43
NA,"Technical University of Dortmund","Germany",34.2,"40.8",29.8,55.3,"48.6","-","29,143",88.9,"10%","47 : 53",2016,7.4128386,51.4926981,142
NA,"Technion Israel Institute of Technology","Israel",30.8,"61.9",33.3,52.1,"28.8","-","13,855",19.4,"4%","35 : 65",2016,35.0231271,32.7767783,41
NA,"Toulouse 1 Capitole University","France",18.6,"66.7",35.7,56.3,"32.5","-","19,011",43.8,"19%","59 : 41",2016,1.4371122,43.6067724,198
NA,"University of Trieste","Italy",26.5,"47.3",18.5,74.1,"32.3","-","18,135",25.8,"9%","56 : 44",2016,13.7934477,45.658667,200
NA,"University of Turin","Italy",27.4,"38.8",22.3,67.5,"54.2","-","67,552",66,"6%","62 : 38",2016,7.6889006,45.069428,200
NA,"University of Turku","Finland",27.1,"66.2",21.2,65.8,"31.2","-","12,326",14.6,"5%","61 : 39",2016,22.2851138,60.4562974,87
NA,"Vrije Universiteit Brussel","Belgium",28.7,"64.5",24.5,56.8,"77.1","-","9,020",17.1,"16%","55 : 45",2016,4.394886,50.821658,199
NA,"VŠB - Technical University of Ostrava","Czech Republic",18.8,"22.3",15.7,85.5,"32.1","-","14,991",23.9,"5%","49 : 51",2016,18.1636092,49.8336826,70
NA,"Yonsei University","South Korea",37.2,"41.5",34.1,39.4,"75.9","-","24,774",11.6,"14%","",2016,126.938572,37.565784,155
NA,"York University","Canada",30.2,"58.2",30.8,49.1,"33.2","-","48,007",39.4,"9%","59 : 41",2016,-79.5018684,43.7734535,85
NA,"Bilkent University","Turkey",22.6,"47.5",17.5,64.1,"30.2","-","",NA,"","",2016,32.7475962,39.8746147,22
NA,"Binghamton University, State University of New York","United States of America",22.7,"53.6",17.4,62,"34.0","-","15,799",23.3,"14%","48 : 52",2016,-75.9697049,42.0893553,58
NA,"University of Crete","Greece",18.6,"47.0",19.2,73.6,"34.5","-","14,650",26.9,"5%","63 : 37",2016,25.0826527,35.3073146,13
NA,"University of Cyprus","Cyprus",18,"74.7",28.5,56.7,"30.0","-","6,880",22.9,"8%","69 : 31",2016,33.3770175,35.1600014,107
NA,"Drexel University","United States of America",31.2,"46.3",14.6,57.7,"36.3","-","20,713",10.8,"18%","48 : 52",2016,-90.3312523,38.6677847,90
NA,"University of Eastern Finland","Finland",24.8,"46.1",20.7,65.1,"33.3","-","10,798",17.3,"6%","64 : 36",2016,29.744203,62.603598,14
NA,"University of Florence","Italy",21.7,"38.5",20.4,72.1,"35.9","-","54,290",17.2,"7%","59 : 41",2016,11.259765,43.7776426,200
NA,"University of St Gallen","Switzerland",25.8,"97.6",11.2,53.5,"41.8","-","6,848",10.8,"34%","32 : 68",2016,9.3755673,47.4321575,72
NA,"Graz University of Technology","Austria",26,"69.3",15.8,52.9,"77.2","-","7,542",12.5,"16%","22 : 78",2016,15.450342,47.0692742,200
NA,"University of Guelph","Canada",28,"53.6",34.2,44.4,"47.4","-","21,643",28.3,"4%","60 : 40",2016,-80.2245283,43.5331548,35
NA,"Hanyang University","South Korea",33.9,"54.3",32.6,31.1,"87.9","-","16,729",10.4,"19%","",2016,127.0453219,37.5572321,140
NA,"Hong Kong Baptist University","Hong Kong",22.6,"75.0",12.1,67.9,"28.8","-","10,441",11,"25%","61 : 39",2016,114.181587,22.337943,199
NA,"University of Houston","United States of America",34.9,"33.9",26.5,52,"42.3","-","40,325",43.7,"9%","50 : 50",2016,-95.3422334,29.7199489,198
NA,"Indian Institute of Technology Bombay","India",37.8,"17.7",28.6,48.5,"42.3","-","8,327",14.9,"1%","16 : 84",2016,72.9132679,19.1334302,162
NA,"Instituto Superior Técnico Lisboa","Portugal",22.2,"43.7",25,59.8,"38.8","-","11,778",16.9,"9%","27 : 73",2016,-9.138705,38.7368192,200
NA,"University of Jyväskylä","Finland",28.2,"47.1",25.5,55.5,"34.2","-","9,703",15.2,"5%","62 : 38",2016,25.7316335,62.2365317,39
NA,"La Trobe University","Australia",27,"78.0",28.5,45.4,"43.7","-","22,037",29,"27%","63 : 37",2016,145.0483946,-37.7207268,33
NA,"Loughborough University","United Kingdom",31.2,"72.9",32.2,41.3,"36.6","-","13,951",15.9,"22%","38 : 62",2016,-1.224632,52.769227,81
NA,"University of Manitoba","Canada",27.1,"57.8",26.9,49.7,"41.8","-","28,576",27.8,"11%","55 : 45",2016,-97.1366259,49.8075008,27
NA,"University of Missouri","United States of America",31.2,"31.0",21,60.2,"31.1","-","29,885",14.1,"5%","53 : 47",2016,-92.3277375,38.9403808,96
NA,"University of Modena and Reggio Emilia","Italy",18.7,"34.2",15.6,72.9,"32.3","-","19,693",25.3,"6%","54 : 46",2016,10.9279258,44.6451116,200
NA,"University of Montana","United States of America",30.8,"21.5",13.6,65.5,"31.0","-","12,470",15.2,"3%","54 : 46",2016,-113.9852081,46.8600672,52
NA,"National University of Ireland, Maynooth","Republic of Ireland",24.6,"75.6",22.8,50.2,"36.6","-","7,653",28,"11%","55 : 45",2016,-6.6000704,53.3838822,18
NA,"University of Nebraska Medical Center","United States of America",37,"37.7",13.3,64.4,"33.6","-","2,857",2.6,"8%","67 : 33",2016,-95.9778714,41.2551186,199
NA,"University of New Mexico","United States of America",25.6,"28.6",15.4,74.5,"37.0","-","",NA,"","",2016,-106.6197812,35.0843187,85
NA,"Norwegian University of Science and Technology","Norway",16.3,"59.9",25.8,59.8,"51.8","-","17,381",13.9,"9%","46 : 54",2016,10.402077,63.419499,57
NA,"University of Oulu","Finland",23.1,"56.9",15.9,62.3,"30.9","-","14,056",8.5,"6%","49 : 51",2016,25.4662935,65.0593177,14
NA,"Panthéon-Sorbonne University – Paris 1","France",53.2,"47.6",47.6,6.8,"28.3","-","42,215",34.3,"20%","59 : 41",2016,2.344468,48.8469373,198
NA,"Polytechnic University of Turin","Italy",23.7,"50.6",18.6,65.9,"42.5","-","27,709",19.6,"16%","29 : 71",2016,7.6620529,45.0627948,200
NA,"University of Rome III","Italy",23.1,"35.9",21,64.8,"37.5","-","36,353",61.2,"5%","59 : 41",2016,12.4795619,41.8620534,199
NA,"Sabancı University","Turkey",22.3,"42.7",32.3,52.8,"70.0","-","2,739",15.9,"6%","39 : 61",2016,29.3748667,40.8928831,2
NA,"San Diego State University","United States of America",20.3,"25.9",27,62.7,"29.3","-","27,420",31.7,"5%","57 : 43",2016,-117.0718893,32.7757217,87
NA,"University of South Australia","Australia",26.4,"89.0",26.7,41.2,"85.9","-","18,971",26.2,"32%","59 : 41",2016,138.6066669,-34.9201652,200
NA,"University of South Carolina","United States of America",31.1,"24.5",21.5,58.7,"30.3","-","29,336",16.3,"1%","55 : 45",2016,-81.0274276,33.996112,110
NA,"University of South Dakota","United States of America",29.3,"17.1",12.1,70.4,"28.0","-","8,003",17.1,"2%","61 : 39",2016,-96.925271,42.784118,9
NA,"State University of Campinas","Brazil",44.6,"21.1",42.3,22.6,"49.4","-","27,095",15.3,"3%","48 : 52",2016,-47.0647206,-22.8184393,89
NA,"University of Stirling","United Kingdom",22.6,"77.7",23.5,59.1,"30.4","-","7,828",15.9,"22%","61 : 39",2016,-3.918879,56.1459171,52
NA,"Sun Yat-sen University","China",31.9,"37.0",24.6,45.7,"79.4","-","51,351",16.6,"8%","51 : 49",2016,113.29947,23.103702,194
NA,"Swansea University","United Kingdom",22.2,"72.4",23.8,58.2,"32.7","-","12,801",17.1,"20%","49 : 51",2016,-3.982132,51.608392,177
NA,"Swinburne University of Technology","Australia",21.5,"84.8",20.2,53.4,"32.2","-","20,314",36.5,"33%","44 : 56",2016,145.0389546,-37.8221504,200
NA,"University of Tartu","Estonia",23.8,"46.1",22.8,64.2,"31.5","-","10,269",13,"3%","66 : 34",2016,26.7198658,58.3810843,42
NA,"Temple University","United States of America",34,"28.6",18.2,58.3,"41.6","-","33,268",13.3,"5%","51 : 49",2016,-75.1575243,39.9803336,197
NA,"University of Texas at San Antonio","United States of America",18.1,"29.6",16.6,74.9,"28.6","-","27,520",26.9,"6%","48 : 52",2016,-98.6207675,29.5830244,49
NA,"UiT The Arctic University of Norway","Norway",26.5,"66.1",18.7,58.8,"36.8","-","10,398",12.2,"10%","60 : 40",2016,18.9712162,69.6798027,23
NA,"Université Libre de Bruxelles","Belgium",26.1,"84.5",28.3,47.9,"39.1","-","23,819",26.1,"32%","54 : 46",2016,4.3822222,50.8132068,199
NA,"Lille 2 University – Health and Law","France",15.1,"39.4",9.5,81.7,"31.5","-","26,894",38.5,"8%","58 : 42",2016,3.0838866,50.6115951,200
NA,"University College Cork","Republic of Ireland",28.6,"75.5",23.8,48.4,"47.1","-","15,805",22.3,"15%","55 : 45",2016,-8.4932738,51.8921099,186
NA,"Verona University","Italy",23.6,"38.3",13.1,76.1,"36.6","-","25,250",19.7,"7%","65 : 35",2016,11.004076,45.43844,200
NA,"Victoria University of Wellington","New Zealand",26,"88.8",28.7,44.3,"45.6","-","17,142",21.1,"21%","55 : 45",2016,174.7686615,-41.2904017,165
NA,"Washington State University","United States of America",29,"39.6",28.2,49.6,"57.1","-","24,550",18.3,"7%","50 : 50",2016,-117.1542121,46.7319225,16
NA,"Wayne State University","United States of America",31.9,"29.6",14.2,65.3,"41.7","-","23,065",10.7,"7%","57 : 43",2016,-83.0665462,42.3591388,200
NA,"American University","United States of America",42.2,"28.9",16.5,41.1,"35.9","-","11,604",12,"12%","60 : 40",2016,-77.088468,38.93741,200
NA,"Aston University","Unted Kingdom",18.4,"92.5",20.4,51.9,"34.6","-","",NA,"","",2016,-1.8902314,52.4869642,194
NA,"University of Aveiro","Portugal",24.8,"45.9",26.5,43.6,"40.1","-","10,791",17.8,"10%","51 : 49",2016,-8.657506,40.6303024,67
NA,"University of Bari Aldo Moro","Italy",28.7,"31.7",21.6,48.8,"45.4","-","51,560",65.1,"2%","65 : 35",2016,16.8684745,41.1205546,199
NA,"Bar-Ilan University","Israel",22.6,"49.4",21.3,42.3,"28.9","-","17,503",16,"5%","59 : 41",2016,34.8430876,32.0691989,67
NA,"Bournemouth University","United Kingdom",32,"70.6",12.6,35.2,"28.8","-","14,907",25.9,"18%","53 : 47",2016,-1.8962463,50.742981,189
NA,"University of Brescia","Italy",15.6,"36.6",14.8,72.3,"35.8","-","14,076",25,"7%","48 : 52",2016,10.217297,45.537837,199
NA,"Brno University of Technology","Czech Republic",18,"35.8",14.7,55.8,"33.7","-","23,694",21.3,"15%","27 : 73",2016,16.6033808,49.2017233,200
NA,"Brunel University London","United Kingdom",24.8,"91.8",23.3,39.5,"34.7","-","12,613",17.6,"38%","46 : 54",2016,-0.4692108,51.5331581,101
NA,"Ca’ Foscari University of Venice","Italy",23.9,"38.1",27.8,48.9,"32.3","-","19,267",38.3,"7%","66 : 34",2016,12.3261971,45.4345319,200
NA,"University of Cagliari","Italy",19.4,"32.6",13.2,56.8,"33.6","-","30,638",51,"1%","62 : 38",2016,9.1149594,39.2175754,196
NA,"University of Canterbury","New Zealand",23.5,"91.0",22.5,38.9,"52.1","-","12,187",16.5,"20%","51 : 49",2016,172.5839233,-43.5235375,121
NA,"Catholic University of the Sacred Heart","Italy",18.6,"39.0",11.3,55.4,"38.7","-","30,304",18.9,"10%","",2016,9.1771785,45.4621325,200
NA,"Charles University in Prague","Czech Republic",31.5,"52.8",21.5,41,"28.2","-","51,438",13,"15%","62 : 38",2016,14.4234889,50.0871106,199
NA,"China Medical University, Taiwan","Taiwan",24,"25.7",29.4,45,"60.4","-","7,983",15.4,"8%","53 : 47",2016,120.6801328,24.1562767,200
NA,"City University London","United Kingdom",23.5,"89.6",21.2,43.5,"28.9","-","13,053",17.8,"50%","55 : 45",2016,-0.1025445,51.5278249,195
NA,"Claude Bernard University Lyon 1","France",21.3,"50.5",13.2,66.5,"34.5","-","35,308",16.1,"11%","50 : 50",2016,4.862939,45.779462,199
NA,"University of Coimbra","Portugal",28.3,"46.2",26.5,42.4,"34.8","-","22,795",19,"11%","55 : 45",2016,-8.4241509,40.2089072,95
NA,"Complutense University of Madrid","Spain",33.2,"39.1",27.6,31.2,"30.9","-","86,519",17.5,"13%","62 : 38",2016,-3.7285872,40.4478246,200
NA,"Concordia University","Canada",19.3,"77.4",23.4,36.4,"30.9","-","31,017",30.3,"27%","50 : 50",2016,-117.810409,33.65461,29
NA,"Curtin University","Australia",20.1,"93.1",20.2,44.6,"37.8","-","30,333",17.1,"38%","53 : 47",2016,115.8944182,-32.0061951,46
NA,"Dublin City University","Republic of Ireland",26.1,"76.7",25.2,36.3,"51.7","-","8,546",22.9,"17%","51 : 49",2016,-6.2567437,53.3861818,193
NA,"East China University of Science and Technology","China",24.1,"21.7",17.1,46.4,"64.7","-","27,140",15.5,"5%","",2016,121.4251069,31.1408757,123
NA,"Ewha Womans University","South Korea",23.9,"34.3",18.3,50.4,"57.6","-","17,625",14.4,"6%","100 : 0",2016,126.9468294,37.5618577,161
NA,"Federico Santa María Technical University","Chile",17.2,"54.1",10.1,70.5,"35.1","-","11,718",34,"2%","24 : 76",2016,-71.5956131,-33.0347298,156
NA,"University of Ferrara","Italy",17.7,"41.8",17.2,63.3,"35.9","-","18,882",30.2,"7%","56 : 44",2016,11.6261625,44.8334234,199
NA,"Florida International University","United States of America",25.7,"32.8",18.1,49.4,"32.7","-","32,566",25.9,"7%","56 : 44",2016,-80.3739487,25.7565756,49
NA,"University of Genoa","Italy",27.2,"38.8",14.2,59.3,"42.3","-","37,373",29.5,"9%","56 : 44",2016,8.9267336,44.4149149,200
NA,"Georgia State University","United States of America",26.3,"29.5",19.5,52.9,"28.7","-","28,534",20.4,"5%","59 : 41",2016,-84.3852819,33.753068,196
NA,"University of Graz","Austria",24.9,"68.9",16.3,53.3,"29.3","-","20,584",26.8,"12%","65 : 35",2016,15.4499126,47.0777872,200
NA,"Heriot-Watt University","United Kingdom",23.4,"90.1",22.4,36.4,"45.6","-","8,773",17.8,"43%","41 : 59",2016,-3.3203494,55.9096602,46
NA,"Hokkaido University","Japan",40.3,"27.9",32.8,29.3,"53.7","-","18,162",8.2,"9%","29 : 71",2016,141.340013,43.0779575,199
NA,"Howard University","United States of America",38.8,"30.3",11,44.5,"-","-","10,297",6.8,"5%","65 : 35",2016,-77.0194377,38.9226843,199
NA,"University of Hull","United Kingdom",22.4,"73.2",16.1,41.1,"31.8","-","15,141",18.7,"20%","52 : 48",2016,-0.3673875,53.7714552,174
NA,"University of Idaho","United States of America",28.3,"32.0",19.4,40.8,"32.4","-","11,641",21.5,"6%","47 : 53",2016,-117.0126084,46.7288124,14
NA,"Indian Institute of Technology Delhi","India",35.8,"15.5",25.8,33.4,"62.8","-","8,371",17.3,"1%","18 : 82",2016,77.1926283,28.5449756,193
NA,"Indian Institute of Technology Kharagpur","India",33.2,"13.3",30.5,41.4,"31.7","-","9,928",17.5,"0%","15 : 85",2016,87.3105311,22.3149274,4
NA,"Indian Institute of Technology Madras","India",34.6,"16.1",20.7,31.4,"88.9","-","8,234",15.9,"1%","19 : 81",2016,80.2339031,12.9908081,129
NA,"University of Ioannina","Greece",14.5,"36.9",17.7,56.4,"32.9","-","20,825",36.3,"4%","58 : 42",2016,20.8450898,39.6158593,8
NA,"Iran University of Science and Technology","Iran",25.9,"12.2",26,42.3,"61.2","-","10,311",23.9,"0%","24 : 76",2016,51.5023103,35.742474,12
NA,"Johannes Kepler University of Linz","Austria",19.2,"58.5",13.8,51.6,"37.4","-","19,646",29.1,"10%","48 : 52",2016,14.3219434,48.3375357,109
NA,"University of Kaiserslautern","Germany",29.6,"44.1",22.6,47.5,"80.2","-","14,184",54.4,"14%","36 : 64",2016,7.7556483,49.4253647,52
NA,"Keele University","United Kingdom",20,"72.7",17.6,53,"29.3","-","8,397",15.7,"20%","55 : 45",2016,-2.272053,53.0034373,89
NA,"University of KwaZulu-Natal","South Africa",20.3,"58.6",25.7,41.5,"38.2","-","30,572",24.9,"6%","58 : 42",2016,30.9807272,-29.8674219,91
NA,"Kyung Hee University","South Korea",26.1,"46.4",27.6,39.2,"89.4","-","24,356",17.4,"14%","",2016,127.052544,37.5961951,97
NA,"Kyushu University","Japan",36.5,"26.4",27.5,31.8,"83.2","-","18,925",6.7,"8%","28 : 72",2016,130.4250445,33.6266584,199
NA,"Lehigh University","United States of America",23.9,"36.0",15,58.2,"38.9","-","6,300",11.3,"15%","44 : 56",2016,-75.3782832,40.6069087,88
NA,"Louisiana State University","United States of America",26.8,"26.1",27.7,37.8,"-","-","28,116",20.1,"6%","52 : 48",2016,-91.1800023,30.4132579,74
NA,"University of Macau","Macau",18.5,"98.4",17,49.7,"34.9","-","8,521",14.9,"31%","58 : 42",2016,113.5466489,22.1290705,43
NA,"Makerere University","Uganda",15.1,"58.0",10.6,70.7,"28.0","-","37,340",29.4,"9%","50 : 50",2016,32.5709881,0.329183,183
NA,"Marche Polytechnic University","Italy",15.2,"27.3",11,80.2,"28.0","-","16,589",23,"4%","45 : 55",2016,13.5127759,43.6171442,132
NA,"University of Maryland, Baltimore County","United States of America",21.3,"28.2",18.2,61.3,"31.7","-","13,908",18.1,"7%","46 : 54",2016,-76.7111956,39.2551135,26
NA,"Murdoch University","Australia",18.7,"88.3",19.6,51.2,"36.5","-","16,606",32.8,"43%","59 : 41",2016,115.8329519,-32.0686354,22
NA,"University of Nantes","France",19.6,"35.1",12.2,69.4,"-","-","33,866",22.2,"11%","56 : 44",2016,-1.5559718,47.2095499,199
NA,"National and Kapodistrian University of Athens","Greece",26.7,"39.0",16.3,45.8,"-","-","63,052",32.3,"9%","61 : 39",2016,23.7786871,37.968196,199
NA,"National Autonomous University of Mexico","Mexico",42.7,"35.9",40.2,14.8,"63.7","-","137,378",11.6,"5%","51 : 49",2016,-99.1843676,19.3188895,199
NA,"National Cheng Kung University","Taiwan",29.8,"27.7",40.2,27.2,"100.0","-","21,234",14.4,"11%","36 : 64",2016,120.2180947,22.9996873,166
NA,"National Institute of Applied Sciences of Lyon (INSA Lyon)","France",27,"63.6",10.6,41.8,"40.3","-","6,137",8.2,"31%","31 : 69",2016,4.878273,45.782938,200
NA,"National Yang-Ming University","Taiwan",41.5,"15.8",18.5,33.3,"30.2","-","4,496",5.4,"2%","48 : 52",2016,121.5137024,25.1230017,63
NA,"University of Neuchâtel","Switzerland",24.2,"91.4",14.7,48.2,"-","-","4,358",8.5,"22%","59 : 41",2016,6.9387031,46.9938549,36
NA,"New University of Lisbon","Portugal",26.9,"44.5",21.9,38.3,"41.3","-","18,867",17.9,"7%","49 : 51",2016,-9.160333,38.733682,200
NA,"University of Nice Sophia Antipolis","France",21.4,"79.5",16.1,53.7,"28.5","-","27,304",20.3,"22%","56 : 44",2016,7.2896737,43.7099458,200
NA,"Novosibirsk State University","Russian Federation",41.4,"32.4",30.8,26.2,"38.2","-","7,131",7.1,"13%","52 : 48",2016,83.0943884,54.8477462,17
NA,"The Open University","United Kingdom",21,"51.5",13.8,60.3,"28.4","-","76,683",35.9,"9%","61 : 39",2016,-0.7104769,52.0250914,87
NA,"Oxford Brookes University","United Kingdom",25.7,"68.9",18.8,42.7,"28.4","-","14,238",18.5,"25%","57 : 43",2016,-1.29121,51.7399245,176
NA,"University of Palermo","Italy",15.3,"23.6",9.1,77.4,"28.0","-","43,875",22.4,"1%","60 : 40",2016,13.369838,38.11779,200
NA,"University of Parma","Italy",17.7,"36.8",16.6,56.4,"37.1","-","26,937",29.1,"7%","56 : 44",2016,10.3257786,44.8011856,200
NA,"University of Pisa","Italy",21.6,"31.1",18.9,64.5,"31.4","-","47,247",18,"4%","52 : 48",2016,10.3988593,43.7167235,200
NA,"Polytechnic University of Catalonia","Spain",25.2,"63.9",14.8,44.7,"40.9","-","22,893",11.7,"28%","12 : 88",2016,2.1132804,41.388004,200
NA,"Pontifical Catholic University of Chile","Chile",28.2,"52.4",21.3,37,"28.0","-","25,075",15.3,"7%","",2016,-70.6407933,-33.4411279,199
NA,"University of Porto","Portugal",32,"45.4",28.2,37.2,"38.7","-","32,720",18.8,"9%","54 : 46",2016,-8.6156998,41.1465479,200
NA,"University of Portsmouth","United Kingdom",17.2,"79.3",10.9,58.2,"28.9","-","20,161",19.1,"23%","45 : 55",2016,-1.0935686,50.7951287,172
NA,"RMIT University","Australia",24.7,"82.1",17.7,44.6,"37.0","-","29,501",18.1,"25%","47 : 53",2016,144.9639667,-37.8085495,198
NA,"University of Rome II – Tor Vergata","Italy",23.5,"36.5",17.2,64.5,"34.7","-","33,504",26.5,"6%","52 : 48",2016,12.5978728,41.850142,198
NA,"University of Rovira i Virgili","Spain",20.8,"41.5",14.8,66.9,"30.9","-","12,533",12.8,"9%","61 : 39",2016,1.260497,41.1196609,199
NA,"Saint Petersburg State University","Russian Federation",47.9,"33.0",31.4,14.5,"29.5","-","20,836",5.2,"7%","60 : 40",2016,30.2989198,59.941894,199
NA,"University of Salento","Italy",29.6,"24.5",13.2,53,"36.2","-","19,959",58.4,"1%","64 : 36",2016,18.1672669,40.3495599,200
NA,"University of San Francisco","United States of America",34.2,"40.1",12.9,43.8,"28.6","-","10,788",17,"17%","63 : 37",2016,-122.450683,37.7766466,198
NA,"University of Saskatchewan","Canada",30.8,"52.9",22.4,39.7,"62.9","-","19,028",16.3,"14%","57 : 43",2016,-106.6313582,52.1334003,97
NA,"Sharif University of Technology","Iran",26.6,"15.9",30.1,33.7,"87.8","-","10,977",18.7,"0%","27 : 73",2016,51.351593,35.7036366,20
NA,"University of Siena","Italy",23.7,"39.0",17.8,45.2,"33.2","-","18,846",23.6,"5%","59 : 41",2016,11.3330265,43.3191557,183
NA,"Southern Cross University","Australia",18.9,"52.7",18.3,53.3,"37.7","-","9,026",32.8,"15%","66 : 34",2016,153.2994676,-28.8186387,17
NA,"State University of New York Albany","United States of America",25.6,"31.4",35.3,35.5,"28.0","-","15,387",18.5,"8%","51 : 49",2016,-73.7611058,42.6558252,95
NA,"University of Strathclyde","United Kingdom",25.9,"71.0",28,31.8,"44.1","-","15,705",20.2,"20%","50 : 50",2016,-4.2428535,55.8628285,199
NA,"University of Tampere","Finland",23.5,"41.9",13.7,63.7,"40.0","-","10,045",9.5,"4%","66 : 34",2016,23.7787354,61.4937448,101
NA,"Tampere University of Technology","Finland",23.1,"54.0",17.2,45.5,"67.5","-","6,147",15.5,"13%","23 : 77",2016,23.8586408,61.4497952,11
NA,"Tokyo Medical and Dental University (TMDU)","Japan",39.3,"23.1",18.3,36.6,"59.5","-","2,872",3.3,"7%","51 : 49",2016,139.764451,35.7012897,198
NA,"Tokyo Metropolitan University","Japan",21.6,"19.9",11.4,72.2,"30.9","-","9,303",9.9,"4%","35 : 65",2016,139.6917064,35.6894875,198
NA,"University of Tsukuba","Japan",40,"34.4",30,33.7,"42.9","-","15,930",12.6,"16%","38 : 62",2016,140.1039611,36.1087221,53
NA,"University of Ulsan","South Korea",19.5,"18.6",20.5,54,"64.7","-","14,037",13.3,"3%","",2016,129.256337,35.543932,16
NA,"Ulster University","United Kingdom",19.1,"79.0",13.2,44.1,"29.2","-","19,622",15.8,"15%","55 : 45",2016,-6.6751586,55.1497581,29
NA,"Université du Québec à Montréal","Canada",26.8,"42.9",24.5,41.6,"29.2","-","27,046",24.7,"9%","61 : 39",2016,-73.5605955,45.5125995,200
NA,"Universiti Teknologi Malaysia","Malaysia",26.3,"51.7",14.6,44.7,"31.1","-","16,270",9,"13%","43 : 57",2016,103.6381827,1.55849,12
NA,"University of Urbino Carlo Bo","Italy",17.2,"35.0",8.7,66.8,"31.2","-","13,435",37.4,"7%","61 : 39",2016,12.6367849,43.7243069,43
NA,"University of Valencia","Spain",22.7,"40.5",16.9,49.6,"31.3","-","58,413",15.4,"9%","60 : 40",2016,-0.3593863,39.4793254,199
NA,"University of Waikato","New Zealand",19.3,"87.0",18.2,53.7,"30.7","-","10,159",17,"25%","57 : 43",2016,175.3184579,-37.7868611,44
NA,"Western Sydney University","Australia",20.1,"54.0",24.6,52.3,"30.7","-","30,704",32.2,"9%","56 : 44",2016,151.0251472,-33.8118321,59
NA,"Wuhan University","China",38.2,"36.7",26.8,18,"97.8","-","46,227",14.4,"7%","",2016,114.3643219,30.5360485,200
NA,"Xiamen University","China",26.7,"25.0",15.6,47,"-","-","32,921",12.3,"5%","52 : 48",2016,118.097855,24.4373484,193
NA,"American University of Beirut","Lebanon",27.7,"93.0",11.2,31.9,"-","-","7,695",8.9,"25%","51 : 49",2016,35.4811142,33.90113,125
NA,"Amirkabir University of Technology","Iran",24.5,"7.7",25.7,34.8,"55.7","-","14,080",25.6,"1%","34 : 66",2016,51.4091693,35.7040861,38
NA,"University of the Andes, Colombia","Colombia",21.2,"51.7",13.8,31.2,"28.0","-","15,773",16.9,"2%","44 : 56",2016,-74.065012,4.602968,199
NA,"University of Arkansas","United States of America",25.5,"25.9",17.4,30.3,"36.9","-","22,819",21.2,"5%","50 : 50",2016,-94.1736551,36.0678324,60
NA,"Auburn University","United States of America",30.2,"27.9",19.4,21,"37.2","-","22,386",17.6,"4%","51 : 49",2016,-85.4951663,32.5933574,24
NA,"Babeş-Bolyai University","Romania",27.9,"35.4",12.5,32.1,"28.6","-","37,915",23.5,"2%","67 : 33",2016,23.5912762,46.7677955,134
NA,"University of the Basque Country","Spain",18.2,"34.9",11.9,43.1,"30.3","-","46,373",15.3,"5%","53 : 47",2016,-2.673645,42.838485,200
NA,"Bauman Moscow State Technical University","Russian Federation",44,"15.6",23.7,3.1,"68.1","-","18,808",4,"4%","23 : 77",2016,37.6839719,55.7668614,200
NA,"Ben-Gurion University of the Negev","Israel",25.1,"52.9",21.3,30.1,"28.7","-","16,695",12.6,"2%","49 : 51",2016,34.801461,31.262218,41
NA,"Blaise Pascal University","France",20.2,"66.6",2.9,46.9,"-","-","15,619",7.1,"17%","55 : 45",2016,3.1123259,45.7640856,197
NA,"Boğaziçi University","Turkey",21.2,"38.3",17.2,45.4,"35.5","-","11,506",25,"7%","50 : 50",2016,29.0510399,41.0847571,76
NA,"University of Burgundy","France",21.4,"50.9",8.8,46.3,"-","-","26,612",20.8,"11%","54 : 46",2016,5.0703447,47.3117503,198
NA,"University of Canberra","Australia",18.4,"54.6",19.3,29.8,"36.2","-","11,221",28.6,"24%","54 : 46",2016,149.0840869,-35.2381609,31
NA,"Carleton University","Canada",19.9,"61.3",24,32,"30.4","-","25,036",29.8,"18%","47 : 53",2016,-75.698312,45.3830819,196
NA,"University of Catania","Italy",19.2,"25.3",15.9,52.9,"29.5","-","55,859",49.7,"1%","61 : 39",2016,15.0864981,37.5035647,200
NA,"Central Queensland University","Australia",20.9,"50.8",11.4,43.7,"32.5","-","11,452",29.6,"27%","59 : 41",2016,150.5185512,-23.324376,7
NA,"University of Chile","Chile",28.3,"44.1",19.6,30.5,"-","-","29,207",14.2,"3%","47 : 53",2016,-70.6509277,-33.4445204,199
NA,"China Agricultural University","China",35.8,"17.6",24.9,22.6,"52.3","-","19,342",12,"1%","57 : 43",2016,116.353052,40.004171,193
NA,"Chung-Ang University","South Korea",29.9,"43.7",27.6,17.4,"61.3","-","13,015",17.4,"17%","45 : 55",2016,126.956954,37.504147,137
NA,"Czech Technical University in Prague","Czech Republic",20.6,"25.0",9.3,46.5,"28.2","-","22,751",12,"","-",2016,14.3912841,50.1030364,200
NA,"De Montfort University","United Kingdom",16.8,"58.4",10.1,40.1,"28.5","-","16,812",19.1,"21%","57 : 43",2016,-1.139599,52.6291014,184
NA,"East China Normal University","China",24.6,"30.6",14.7,43.3,"42.0","-","29,623",14,"11%","63 : 37",2016,121.4066077,31.227812,189
NA,"Edith Cowan University","Australia",18.9,"68.7",16.1,35,"34.5","-","27,491",16.1,"16%","61 : 39",2016,115.7732882,-31.7524053,22
NA,"Federal University of Rio de Janeiro","Brazil",32.4,"25.1",19.7,18.3,"42.9","-","52,878",12.8,"2%","54 : 46",2016,-43.1753638,-22.9541412,195
NA,"University of Granada","Spain",24.3,"36.4",14.7,45.8,"29.4","-","53,476",16,"6%","56 : 44",2016,-3.600767,37.183853,199
NA,"University of Haifa","Israel",25.5,"34.7",29.5,26.2,"30.3","-","17,758",30.8,"1%","65 : 35",2016,35.0195184,32.7614296,14
NA,"Harbin Institute of Technology","China",29.4,"25.6",27.3,15.7,"99.8","-","31,658",10.8,"7%","29 : 71",2016,126.633425,45.747047,195
NA,"University of Hertfordshire","United Kingdom",15.5,"78.9",9.5,50.5,"29.3","-","19,665",19.4,"27%","54 : 46",2016,-0.2467997,51.7617561,56
NA,"Hiroshima University","Japan",27.8,"22.2",18.9,41.7,"42.2","-","14,686",8.2,"5%","36 : 64",2016,132.714908,34.403123,8
NA,"Huazhong University of Science and Technology","China",29.3,"17.3",22.7,31.6,"71.8","-","57,242",17.7,"4%","34 : 66",2016,114.413666,30.507905,172
NA,"Indian Institute of Technology Guwahati","India",24.3,"12.9",20.7,42.6,"32.3","-","4,710",14.2,"1%","14 : 86",2016,91.6950635,26.1929025,12
NA,"Indian Institute of Technology Kanpur","India",33.1,"16.4",15,31.5,"28.0","-","6,167",12.2,"0%","13 : 87",2016,80.2329,26.5123388,1
NA,"Indian Institute of Technology Roorkee","India",29.7,"13.9",17.5,37.2,"81.4","-","8,061",18.7,"1%","17 : 83",2016,77.8965787,29.8648599,1
NA,"Isfahan University of Technology","Iran",18.1,"17.2",23,39.5,"99.5","-","10,964",26.5,"1%","39 : 61",2016,51.5330109,32.7200351,NA
NA,"Istanbul Technical University","Turkey",19.2,"22.9",25.8,26.5,"72.1","-","34,550",16,"5%","34 : 66",2016,29.0253401,41.1055941,56
NA,"Jadavpur University","India",32.8,"7.7",22.2,31.8,"33.8","-","10,697",16.1,"0%","30 : 70",2016,88.3698181,22.4996111,68
NA,"Kanazawa University","Japan",24.7,"18.4",14.8,35.5,"30.4","-","10,546",10.4,"5%","36 : 64",2016,136.7087378,36.5459854,20
NA,"Kansas State University","United States of America",22.9,"41.7",17.5,39.3,"43.1","-","21,379",15.1,"10%","50 : 50",2016,-96.5847249,39.1974437,49
NA,"Keio University","Japan",25,"22.7",17.5,28.5,"41.4","-","33,751",11.9,"5%","32 : 68",2016,139.7429376,35.6489643,200
NA,"Kent State University","United States of America",18.4,"32.4",14.2,53.8,"28.5","-","23,122",19,"8%","58 : 42",2016,-81.3449261,41.1507253,37
NA,"King Fahd University of Petroleum and Minerals","Saudi Arabia",25.4,"84.5",16.1,24.4,"81.2","-","6,898",7.1,"20%","-",2016,50.1445651,26.3104682,3
NA,"King Saud University","Saudi Arabia",20,"75.5",17.5,22.3,"57.4","-","40,666",13.4,"7%","",2016,46.6191078,24.716241,6
NA,"University of La Laguna","Spain",16.9,"44.7",10,44.8,"28.5","-","22,422",14.9,"5%","58 : 42",2016,-16.3127175,28.4848482,199
NA,"Lappeenranta University of Technology","Finland",27.1,"53.0",27.5,20.8,"80.3","-","3,486",23.9,"19%","31 : 69",2016,28.0941671,61.0648818,12
NA,"University of Limerick","Republic of Ireland",19.8,"76.5",16.3,36.6,"34.0","-","12,212",19.8,"13%","46 : 54",2016,-8.5745593,52.6687383,76
NA,"University of Lisbon","Portugal",25.9,"46.6",18.3,32.4,"35.4","-","47,849",17.5,"9%","51 : 49",2016,-9.1567472,38.7530019,200
NA,"Liverpool John Moores University","United Kingdom",16.4,"62.1",11.6,45.9,"28.8","-","18,513",19.8,"13%","52 : 48",2016,-2.9712846,53.4034017,190
NA,"Mahidol University","Thailand",26.8,"44.1",15.1,28.3,"71.6","-","27,402",7.5,"3%","63 : 37",2016,100.3233845,13.7947609,11
NA,"Manchester Metropolitan University","United Kingdom",22.7,"57.8",10.6,30.8,"28.3","-","28,037",18.2,"14%","57 : 43",2016,-2.238469,53.471055,192
NA,"University of Maribor","Slovenia",17.1,"33.6",11.5,42.1,"38.7","-","14,531",17.3,"4%","",2016,15.6433073,46.5591885,54
NA,"Masaryk University","Czech Republic",21.2,"48.9",22.9,27.8,"28.5","-","40,898",26.6,"17%","62 : 38",2016,16.605384,49.1986299,200
NA,"Massey University","New Zealand",23.1,"80.5",17.1,31.9,"35.8","-","19,101",16.8,"15%","62 : 38",2016,175.619553,-40.3867649,21
NA,"Memorial University of Newfoundland","Canada",18.1,"53.3",15.8,35.6,"48.3","-","15,464",14.6,"10%","59 : 41",2016,-52.7329053,47.5737975,72
NA,"Middle East Technical University","Turkey",29.9,"26.7",17.3,28.8,"60.0","-","25,779",22.2,"7%","44 : 56",2016,33.0307541,35.246756,2
NA,"University of Minho","Portugal",23.9,"43.6",20.1,35.3,"51.6","-","19,090",18.8,"9%","52 : 48",2016,-8.3966231,41.5598965,85
NA,"Missouri University of Science and Technology","United States of America",23.5,"40.6",18.4,28.7,"52.8","-","7,647",15.5,"12%","23 : 77",2016,-91.7755727,37.953451,9
NA,"Montana State University","United States of America",17.7,"23.5",21.8,48,"43.0","-","12,331",17.8,"4%","46 : 54",2016,-111.049325,45.667548,44
NA,"Monterrey Institute of Technology and Higher Education","Mexico",23.9,"59.6",12.7,23.4,"75.8","-","14,353",20.5,"12%","40 : 60",2016,-121.8970109,36.5993006,82
NA,"National Central University","Taiwan",26.3,"27.1",23.2,17.5,"75.3","-","10,915",9.8,"6%","31 : 69",2016,121.1925163,24.9694808,64
NA,"National Sun Yat-Sen University","Taiwan",26.1,"19.7",33,25.8,"44.3","-","9,336",19.6,"4%","37 : 63",2016,120.265922,22.625005,191
NA,"National Taiwan Normal University","Taiwan",26.2,"38.1",31.3,16.2,"81.9","-","11,072",13,"19%","57 : 43",2016,121.5273658,25.0254571,199
NA,"National Technical University of Athens","Greece",20.2,"31.3",15,36.2,"40.3","-","14,780",26.9,"7%","36 : 64",2016,23.7827066,37.9783769,199
NA,"New Jersey Institute of Technology","United States of America",18.9,"48.5",16.6,32.2,"32.2","-","10,646",26.2,"17%","25 : 75",2016,-74.1778803,40.7425572,200
NA,"New Mexico State University","United States of America",19.5,"30.5",19.2,47.2,"34.6","-","15,035",18.8,"7%","54 : 46",2016,-106.7447566,32.2847481,32
NA,"University of North Carolina at Greensboro","United States of America",18.2,"17.4",15.3,43.1,"28.9","-","16,446",19.2,"2%","66 : 34",2016,-79.8098429,36.0674908,101
NA,"Oklahoma State University","United States of America",27.5,"25.6",22.7,33.1,"33.7","-","21,270",21.4,"7%","49 : 51",2016,-97.0737222,36.1270236,28
NA,"Osaka City University","Japan",26.3,"21.3",13.4,34.4,"40.7","-","8,604",10.1,"4%","36 : 64",2016,135.505417,34.5919232,200
NA,"Otto von Guericke University of Magdeburg","Germany",22.9,"43.9",14.4,39.7,"37.7","-","14,104",13.1,"13%","42 : 58",2016,11.647715,52.1401928,75
NA,"University of Oviedo","Spain",19.5,"36.2",10.8,41.9,"34.1","-","24,210",13.7,"5%","54 : 46",2016,-5.8462773,43.3617179,200
NA,"Palacký University in Olomouc","Czech Republic",19.2,"48.8",11.8,42.9,"28.7","-","18,540",11.4,"9%","70 : 30",2016,17.2600153,49.5954268,148
NA,"Panjab University","India",24.6,"14.1",8.8,41,"28.1","-","16,691",23.9,"1%","46 : 54",2016,76.7653924,30.7606188,44
NA,"Paris Dauphine University","France",21.9,"69.3",11.1,27.6,"30.6","-","9,565",15.4,"28%","53 : 47",2016,2.273451,48.870029,198
NA,"Pontifical Catholic University of Rio de Janeiro (PUC-Rio)","Brazil",24.5,"31.3",24.1,23.1,"100.0","-","14,300",21.2,"3%","49 : 51",2016,-43.2333608,-22.9782927,197
NA,"Portland State University","United States of America",16.8,"31.6",14.4,43.3,"44.6","-","20,398",22.2,"8%","54 : 46",2016,-122.6846429,45.5119323,197
NA,"University of Pretoria","South Africa",25.6,"46.0",21.2,17.5,"52.4","-","37,314",20,"8%","57 : 43",2016,28.2314476,-25.7545492,92
NA,"Pusan National University","South Korea",27.5,"32.9",24.7,20.4,"66.8","-","24,929",19.7,"12%","51 : 49",2016,129.0797639,35.2336948,56
NA,"Quaid-i-azam University","Pakistan",17.9,"35.4",9.9,45.6,"-","-","12,688",25.7,"0%","53 : 47",2016,73.1380962,33.7462228,1
NA,"University of Regina","Canada",15.6,"47.7",15.8,34.2,"34.4","-","11,550",22.8,"12%","61 : 39",2016,-104.58849,50.4170134,64
NA,"Renmin University of China","China",34.7,"40.1",13.7,30.7,"42.5","-","24,954",12.7,"6%","",2016,116.3188145,39.9696062,195
NA,"University of Rennes 1","France",17.8,"53.0",10.3,44.7,"31.7","-","22,186",13.9,"12%","50 : 50",2016,-1.67296,48.1159299,200
NA,"University of Salamanca","Spain",26.1,"40.8",16.9,25.9,"31.6","-","31,035",17.9,"12%","58 : 42",2016,-5.6669251,40.9613376,200
NA,"University of Santiago de Compostela","Spain",22.9,"37.1",14.1,46.9,"32.3","-","29,085",15.3,"6%","63 : 37",2016,-8.545475,42.8799935,200
NA,"Semmelweis University","Hungary",19.6,"81.7",10.6,41.5,"30.7","-","12,920",10.9,"25%","64 : 36",2016,19.0673266,47.4873553,200
NA,"University of Seville","Spain",21.5,"32.0",14.9,32.6,"36.7","-","64,931",17.5,"7%","55 : 45",2016,-5.9912307,37.3807579,199
NA,"Université de Sherbrooke","Canada",25.6,"39.8",9.5,41.3,"29.6","-","13,438",5.4,"5%","54 : 46",2016,-71.9255204,45.3768886,58
NA,"Soochow University","China",19.2,"16.0",13.7,45.8,"75.3","-","36,465",12.9,"2%","78 : 22",2016,120.639406,31.3094277,198
NA,"South China University of Technology","China",19.5,"17.5",22.1,28.1,"86.8","-","41,438",17.7,"3%","33 : 67",2016,113.344683,23.151326,195
NA,"Tallinn University of Technology","Estonia",16.3,"37.9",15,38.7,"44.8","-","14,061",28.6,"5%","44 : 56",2016,24.671431,59.395884,28
NA,"Tehran University of Medical Sciences","Iran",51.8,"14.1",20,9.3,"30.0","-","13,912",9,"1%","62 : 38",2016,51.3941258,35.7058568,40
NA,"University of Texas at Arlington","United States of America",20.1,"50.3",10.1,50.9,"33.4","-","29,396",10.5,"10%","60 : 40",2016,-97.1140881,32.7311482,64
NA,"Tianjin University","China",36.5,"14.7",34.4,12.2,"100.0","-","29,693",12.2,"1%","",2016,117.1748329,39.1110824,191
NA,"Tokyo University of Agriculture and Technology","Japan",34.9,"19.4",24.1,16.9,"39.9","-","5,865",14.4,"5%","27 : 73",2016,139.478664,35.683986,200
NA,"University of Toledo","United States of America",31.6,"37.7",13.4,29.9,"32.9","-","19,465",17.5,"9%","50 : 50",2016,-83.6125896,41.662156,53
NA,"Tongji University","China",28.9,"37.2",29.2,13.1,"63.5","-","37,394",13.5,"10%","38 : 62",2016,121.5045889,31.2823103,198
NA,"University of Tulsa","United States of America",29.7,"43.8",12.9,24.6,"71.7","-","4,597",12.5,"25%","43 : 57",2016,-95.9445808,36.1511173,116
NA,"United Arab Emirates University","United Arab Emirates",18.8,"95.0",14.8,21.7,"30.1","-","9,221",12.5,"26%","76 : 24",2016,55.6765345,24.1994378,3
NA,"University of Warsaw","Poland",26.1,"41.6",15.8,42.2,"28.5","-","49,292",14.1,"7%","67 : 33",2016,21.0186012,52.2403463,198
NA,"University of Wisconsin-Milwaukee","United States of America",17.3,"26.0",13.8,45.5,"29.0","-","22,542",18.4,"5%","52 : 48",2016,-87.8819686,43.078263,198
NA,"Xi’an Jiaotong University","China",28.7,"25.8",22.5,25.5,"70.4","-","29,863",12.3,"4%","34 : 66",2016,108.98371,34.250575,196
NA,"University of Zaragoza","Spain",20.1,"33.5",12.7,49.5,"36.7","-","31,046",11.8,"5%","55 : 45",2016,-0.90034,41.64213,200
NA,"University of A Coruña","Spain",18.3,"23.4",10,16.6,"38.2","-","17,062",13,"2%","52 : 48",2016,-8.412419,43.3328827,200
NA,"Adam Mickiewicz University","Poland",20,"25.7",11,15.3,"28.7","-","40,633",15.6,"1%","71 : 29",2016,16.915402,52.4083974,199
NA,"AGH University of Science and Technology","Poland",14.2,"17.9",3.7,35.7,"-","-","35,569",17,"1%","-",2016,19.9136192,50.0668858,200
NA,"Ajou University","South Korea",19.5,"20.0",11.9,23.9,"45.7","-","12,706",11.3,"2%","33 : 67",2016,127.0463559,37.2821251,86
NA,"University of Alcalá","Spain",17.6,"50.0",11.2,28.3,"43.3","-","30,812",25.1,"18%","53 : 47",2016,-3.3628674,40.4824722,200
NA,"Alexandria University","Egypt",20.3,"33.7",8.2,14.1,"29.7","-","127,431",23.3,"1%","46 : 54",2016,-117.8205127,33.6817395,72
NA,"Alexandru Ioan Cuza University","Romania",24.9,"46.9",13.6,7,"28.2","-","25,724",33,"5%","63 : 37",2016,27.5721117,47.1744351,78
NA,"Aligarh Muslim University","India",28.3,"18.7",10,20.9,"29.6","-","11,197",10.5,"2%","17 : 83",2016,78.0781901,27.9135016,3
NA,"American University of Sharjah","United Arab Emirates",12.4,"95.6",10.6,13.3,"33.3","-","5,226",14.1,"82%","48 : 52",2016,55.4927023,25.3120502,2
NA,"Amrita University","India",20.4,"29.6",5.8,20.7,"28.0","-","17,273",6.6,"8%","",2016,76.9025656,10.9001731,NA
NA,"Anadolu University","Turkey",12.2,"14.3",22.6,10.9,"100.0","-","379,231",162.6,"1%","78 : 22",2016,30.4991884,39.7912871,38
NA,"Andhra University","India",34.8,"7.2",6.9,1.2,"31.3","-","10,407",20.2,"3%","36 : 64",2016,83.320085,17.728816,70
NA,"University of Antioquia","Colombia",18.1,"42.0",21.1,14.8,"43.6","-","38,872",23,"1%","50 : 50",2016,-75.5691113,6.2669533,199
NA,"Aristotle University of Thessaloniki","Greece",22.6,"36.6",15,29.5,"33.6","-","46,288",22.2,"9%","52 : 48",2016,22.9592224,40.6308283,199
NA,"Asia University, Taiwan","Taiwan",14.4,"18.3",15.9,30.5,"38.4","-","12,119",26.3,"3%","53 : 47",2016,120.686421,24.046532,4
NA,"Athens University of Economics and Business","Greece",13.4,"39.2",18.8,31.2,"66.5","-","13,167",57.5,"6%","47 : 53",2016,23.7324354,37.9940805,199
NA,"Auckland University of Technology","New Zealand",17.3,"95.6",9.8,21.7,"28.5","-","18,981",18.1,"38%","58 : 42",2016,174.7673188,-36.8532194,200
NA,"Austral University of Chile","Chile",16.7,"45.2",9.7,14.2,"41.1","-","13,794",17.8,"1%","47 : 53",2016,-73.2516591,-39.8061639,30
NA,"Beijing Institute of Technology","China",25.9,"16.9",21.7,9.1,"87.6","-","",NA,"","",2016,116.311256,39.957127,196
NA,"Belarusian State University","Belarus",20.2,"48.2",8.7,6,"28.0","-","29,303",10.6,"6%","69 : 31",2016,27.5460609,53.8938988,143
NA,"University of Belgrade","Serbia",20.4,"30.5",13.2,14,"45.6","-","96,968",28.3,"5%","60 : 40",2016,20.4575676,44.8184339,198
NA,"Birla Institute of Technology and Science, Pilani","India",18.3,"13.7",8.3,17.4,"29.6","-","11,837",19.5,"0%","22 : 78",2016,75.5869784,28.3639812,4
NA,"University of Bradford","United Kingdom",18.7,"79.1",15.9,22.7,"32.7","-","11,065",20.5,"32%","53 : 47",2016,-1.763463,53.790788,161
NA,"University of Brasília","Brazil",21.9,"24.1",7.4,10.4,"-","-","45,880",14.5,"2%","52 : 48",2016,-47.8706311,-15.7631573,172
NA,"University of Brighton","United Kingdom",16.7,"62.8",10.7,20.1,"29.4","-","16,924",19.5,"19%","58 : 42",2016,-0.119365,50.842116,182
NA,"University of Bucharest","Romania",34.3,"21.3",11.5,9.9,"29.5","-","31,806",24.9,"2%","70 : 30",2016,26.1016731,44.4354447,192
NA,"Budapest University of Technology and Economics","Hungary",17.1,"30.4",13.7,21.6,"39.7","-","22,447",22.1,"4%","32 : 68",2016,19.0554834,47.4813261,200
NA,"Cairo University","Egypt",18.9,"31.0",11.1,11.9,"30.3","-","231,941",39.1,"3%","47 : 53",2016,31.2068151,30.0223946,47
NA,"University of Calcutta","India",34.7,"13.1",8.7,19.8,"29.2","-","18,511",32.5,"0%","",2016,88.3629295,22.5747806,189
NA,"California State University, Long Beach","United States of America",11.6,"18.9",10.4,23.3,"-","-","29,594",32.3,"5%","58 : 42",2016,-118.1140904,33.7838235,108
NA,"Capital Medical University","China",26.3,"18.8",14.9,16.3,"28.8","-","11,506",7.1,"3%","70 : 30",2016,116.352877,39.865173,151
NA,"University of Castilla-La Mancha","Spain",18.4,"28.6",10.3,30.5,"29.7","-","26,381",14.3,"3%","56 : 44",2016,-3.9266844,38.9933175,163
NA,"University of Central Lancashire","United Kingdom",15.7,"54.1",9.4,28.2,"28.9","-","18,542",17.5,"17%","57 : 43",2016,-2.7084395,53.7619242,143
NA,"University of Cergy-Pontoise","France",18.7,"49.1",6.3,13.2,"28.6","-","17,000",9.2,"11%","53 : 47",2016,2.074954,49.039076,159
NA,"Chang Gung University","Taiwan",19.3,"15.7",24.7,27.6,"31.9","-","7,506",12.6,"0%","42 : 58",2016,121.389184,25.0341666,22
NA,"Carlos III University of Madrid","Spain",23.2,"44.7",17.4,24.8,"34.8","-","15,730",11.4,"9%","43 : 57",2016,-3.7268114,40.3161385,200
NA,"University of Chemistry and Technology, Prague","Czech Republic",21.6,"46.3",12,17.4,"38.9","-","4,699",11,"19%","",2016,14.389611,50.103301,200
NA,"Chiang Mai University","Thailand",17.8,"34.9",9.4,30,"32.3","-","35,617",16.5,"1%","19 : 81",2016,98.9546758,18.8082874,200
NA,"Chiba University","Japan",26.9,"21.0",16.8,24.8,"55.3","-","14,554",12.3,"5%","37 : 63",2016,140.1024122,35.6262467,185
NA,"China University of Geosciences (Wuhan)","China",21.1,"16.1",21.4,21.5,"64.5","-","29,483",20.7,"3%","",2016,114.4020037,30.518184,197
NA,"China University of Petroleum (Beijing)","China",23.6,"15.9",26.6,4,"100.0","-","14,579",19.4,"6%","",2016,116.247116,40.219466,40
NA,"Chonbuk National University","South Korea",19.7,"27.2",14.7,24.5,"33.3","-","23,270",15,"3%","45 : 55",2016,127.1293628,35.8468291,57
NA,"Chongqing University","China",19.5,"15.5",15.5,8.7,"73.8","-","43,955",16,"3%","",2016,106.454213,29.560254,150
NA,"Chonnam National University","South Korea",17.5,"20.4",11.7,29.1,"31.4","-","35,779",18.5,"3%","41 : 59",2016,NA,NA,NA
NA,"Chulalongkorn University","Thailand",23.8,"32.8",14.1,16.7,"37.8","-","38,719",14.5,"2%","59 : 41",2016,100.5320528,13.7383777,199
NA,"Chung Yuan Christian University","Taiwan",15.9,"18.7",22.1,17.4,"41.9","-","15,020",30.2,"3%","41 : 59",2016,121.2428031,24.9569013,86
NA,"Chungnam National University","South Korea",23.2,"19.8",17.7,13.2,"39.9","-","18,361",17.2,"3%","",2016,127.3459548,36.3699872,62
NA,"Clemson University","United States of America",21.4,"34.6",19.7,27,"35.8","-","19,198",17.1,"8%","46 : 54",2016,-82.8391551,34.680476,19
NA,"Comenius University in Bratislava","Slovakia",23,"46.9",10.3,19.6,"28.0","-","20,879",9.7,"10%","54 : 46",2016,17.115559,48.1411309,198
NA,"Coventry University","United Kingdom",17.1,"69.6",7.7,18.4,"29.1","-","21,934",14.8,"35%","47 : 53",2016,-1.5037461,52.4071747,182
NA,"Dalian University of Technology","China",22.6,"20.7",19,23.5,"93.3","-","34,326",15.2,"2%","33 : 67",2016,121.529021,38.880381,24
NA,"University of Debrecen","Hungary",17.3,"49.0",11.4,20.9,"-","-","29,714",20.3,"13%","57 : 43",2016,21.6214756,47.5535039,59
NA,"University of Delhi","India",29.8,"15.4",10.8,19.1,"28.2","-","32,567",22.9,"1%","50 : 50",2016,77.1638282,28.5842523,87
NA,"University of Dhaka","Bangladesh",21.7,"37.2",7.2,9.6,"-","-","62,716",6.9,"5%","34 : 66",2016,90.3924947,23.7315492,20
NA,"Dublin Institute of Technology","Republic of Ireland",16.1,"70.5",8.8,20.7,"28.1","-","13,839",18.9,"25%","41 : 59",2016,-6.2676448,53.3386609,193
NA,"Ehime University","Japan",19.2,"20.9",11.3,17.5,"37.8","-","8,394",9.9,"1%","39 : 61",2016,132.7715089,33.8502377,160
NA,"University of Electronic Science and Technology of China","China",20.5,"13.4",12.9,8.8,"28.0","-","21,689",9.8,"0%","21 : 79",2016,104.100361,30.675104,196
NA,"Eötvös Loránd University","Hungary",21.3,"43.0",12.1,30.6,"29.3","-","28,698",22.4,"4%","",2016,19.0585445,47.4905698,200
NA,"Erciyes University","Turkey",15.5,"17.2",10.9,18,"30.3","-","28,079",28,"2%","46 : 54",2016,35.5301767,38.7073405,8
NA,"Federal University of Bahia","Brazil",18.2,"19.7",8.1,14.3,"-","-","39,861",17.9,"1%","47 : 53",2016,-38.5089752,-13.0024602,199
NA,"Federal University of Minas Gerais","Brazil",27.9,"21.6",15.4,23.1,"30.7","-","42,612",13.5,"1%","55 : 45",2016,-43.9663841,-19.8690878,200
NA,"Federal University of Paraná (UFPR)","Brazil",24.6,"15.5",9.6,7,"-","-","21,850",11.2,"1%","",2016,-49.2617658,-25.4269081,199
NA,"Federal University of Rio Grande do Sul","Brazil",32.6,"18.9",13.7,16.8,"-","-","38,743",14.8,"1%","50 : 50",2016,-51.2203322,-30.0335453,200
NA,"Federal University of Santa Catarina","Brazil",26,"21.0",12.2,14.2,"42.9","-","26,078",12.6,"1%","48 : 52",2016,-48.5235907,-27.599144,165
NA,"Federal University of São Carlos","Brazil",29,"16.8",10.8,11.5,"-","-","18,587",16.9,"0%","",2016,-47.8811216,-21.979011,91
NA,"Federal University of Viçosa","Brazil",39.7,"15.0",14.5,3.9,"59.0","-","13,163",11.4,"3%","70 : 30",2016,-42.8682513,-20.7643812,51
NA,"Federal University of Lavras","Brazil",25.8,"14.5",16.4,3,"-","-","10,350",20.9,"2%","53 : 47",2016,-44.9775718,-21.2292703,50
NA,"Feng Chia University","Taiwan",14.6,"21.1",13.7,34.4,"33.9","-","20,213",23.9,"7%","36 : 64",2016,120.6467054,24.1788155,200
NA,"Florida Institute of Technology","United States of America",20.4,"62.4",13.5,24.6,"33.4","-","4,408",13.7,"26%","34 : 66",2016,-80.623022,28.0646888,48
NA,"Fu Jen Catholic University","Taiwan",14.4,"19.1",9.8,18.2,"47.0","-","25,951",22.8,"4%","59 : 41",2016,121.4327592,25.0362991,78
NA,"Gdańsk University of Technology","Poland",15.5,"16.1",9.5,15.2,"36.8","-","25,217",23.3,"1%","39 : 61",2016,18.6163277,54.3716751,156
NA,"University of Ghana","Ghana",15.6,"48.4",15.6,19.5,"-","-","37,274",37.5,"2%","41 : 59",2016,-0.1962244,5.650562,44
NA,"Gifu University","Japan",25.4,"18.5",16.9,14.7,"32.8","-","7,318",12.4,"4%","35 : 65",2016,136.7365752,35.4662236,8
NA,"Glasgow Caledonian University","United Kingdom",17.1,"55.0",10.4,24.2,"29.9","-","13,527",21.6,"16%","60 : 40",2016,-4.2508041,55.8661538,199
NA,"University of Greenwich","United Kingdom",15.7,"81.8",9.5,17.7,"30.0","-","18,096",24.6,"32%","53 : 47",2016,-0.0059828,51.4833425,193
NA,"Hacettepe University","Turkey",21,"19.6",11.8,19.7,"28.2","-","39,606",20.4,"4%","56 : 44",2016,32.7299184,39.8705295,30
NA,"University of Huddersfield","United Kingdom",17.4,"55.2",5.4,16.5,"28.0","-","15,436",18.1,"25%","54 : 46",2016,-1.7770916,53.6431171,155
NA,"Hunan University","China",18.3,"14.8",15,21.2,"46.7","-","42,756",24.7,"2%","43 : 57",2016,112.943822,28.179012,191
NA,"University of Ibadan","Nigeria",22.7,"26.1",11.1,4.6,"29.2","-","26,247",17.1,"1%","45 : 55",2016,3.8986279,7.4454027,11
NA,"University of Indonesia","Indonesia",18.1,"37.2",8,13.9,"40.0","-","43,565",15.8,"0%","51 : 49",2016,106.8295587,-6.3680739,58
NA,"Inha University","South Korea",20.7,"23.5",20,22.5,"64.7","-","20,353",24.1,"3%","36 : 64",2016,126.653116,37.449627,58
NA,"I-Shou University","Taiwan",12.8,"24.8",11.5,13.3,"41.0","-","16,263",29.9,"10%","45 : 55",2016,120.4063526,22.7258536,3
NA,"Istanbul University","Turkey",26,"20.0",23.3,10,"100.0","-","82,096",41.1,"6%","44 : 56",2016,28.961838,41.0126037,200
NA,"Jagiellonian University","Poland",24,"33.5",14.4,30.7,"28.0","-","42,835",11.5,"5%","67 : 33",2016,19.9341074,50.0609623,200
NA,"Jilin University","China",28.2,"20.3",14.4,14.6,"42.1","-","65,605",13.6,"3%","46 : 54",2016,125.348658,43.873742,197
NA,"University of Jordan","Jordan",19,"53.7",7.7,7.8,"28.8","-","35,577",13.6,"13%","67 : 33",2016,35.8730077,32.0134626,8
NA,"Jordan University of Science and Technology","Jordan",16.4,"62.2",6.2,16.4,"31.4","-","24,686",16.4,"23%","55 : 45",2016,35.9912257,32.4950392,NA
NA,"Juntendo University","Japan",32.3,"16.7",10.5,24,"51.1","-","3,955",3.7,"1%","52 : 48",2016,139.7608345,35.7021299,198
NA,"K.N. Toosi University of Technology","Iran",20.9,"7.1",18.1,22.5,"45.5","-","7,146",24.6,"0%","32 : 68",2016,51.4127853,35.7627046,26
NA,"Kaohsiung Medical University","Taiwan",20.6,"19.9",22.2,20.5,"33.2","-","7,009",12.6,"5%","56 : 44",2016,120.3097772,22.6473733,199
NA,"Khon Kaen University","Thailand",18.2,"31.5",7.4,19.9,"35.7","-","39,669",16.9,"1%","62 : 38",2016,102.8266222,16.4731646,44
NA,"King Mongkut’s University of Technology Thonburi","Thailand",18.2,"28.5",11.4,36.2,"70.3","-","17,791",23.7,"1%","42 : 58",2016,100.4949226,13.6517367,53
NA,"Kingston University","United Kingdom",16.9,"76.8",12.1,26.7,"28.5","-","20,778",20.9,"34%","53 : 47",2016,-0.303931,51.4031134,181
NA,"Kinki University","Japan",18.5,"17.0",7.9,30,"33.2","-","31,216",11.6,"2%","",2016,135.587042,34.65123,144
NA,"Kobe University","Japan",27.8,"21.1",15.4,24.3,"45.1","-","15,885",8.4,"6%","33 : 67",2016,135.2353953,34.7256185,124
NA,"Konkuk University","South Korea",20,"22.6",19.6,17,"36.0","-","26,483",23.5,"6%","47 : 53",2016,127.0793428,37.5407625,146
NA,"Kumamoto University","Japan",23.4,"22.2",11.6,28.1,"43.1","-","10,226",7.6,"5%","37 : 63",2016,130.7278725,32.8140382,200
NA,"Kyungpook National University","South Korea",21.1,"21.7",16,18.1,"34.9","-","27,152",14.4,"4%","42 : 58",2016,128.6113282,35.8900521,72
NA,"Kyushu Institute of Technology","Japan",19.4,"20.7",12.5,14.2,"44.1","-","5,890",12.1,"4%","11 : 89",2016,130.8392259,33.8941523,181
NA,"University of Latvia","Latvia",22.6,"31.5",10.2,20.9,"28.3","-","15,100",26.5,"3%","68 : 32",2016,24.1163132,56.9508098,199
NA,"Lille 1 University – Science and Technology","France",20,"60.3",8.6,32.4,"31.8","-","19,599",14.5,"18%","41 : 59",2016,3.138063,50.609049,144
NA,"University of Lincoln","United Kingdom",17.9,"60.5",11.9,26.4,"29.3","-","10,665",18.9,"11%","54 : 46",2016,-0.5504171,53.2287474,106
NA,"University of Ljubljana","Slovenia",24.9,"34.5",13.6,24,"32.3","-","48,821",17.6,"4%","60 : 40",2016,14.5041552,46.0491938,194
NA,"University of Marrakech Cadi Ayyad","Morocco",17.4,"42.7",6.3,12.1,"29.2","-","56,060",38.7,"1%","46 : 54",2016,-8.0038775,31.6652074,80
NA,"Miami University","United States of America",19.2,"24.8",15.7,36.1,"30.2","-","16,370",20.5,"7%","53 : 47",2016,-84.7308768,39.5105334,15
NA,"Middlesex University","United Kingdom",18.5,"81.0",10.6,25.7,"-","-","17,753",24.7,"44%","59 : 41",2016,-0.2282466,51.5893495,190
NA,"Moscow Institute of Physics and Technology","Russian Federation",34.3,"44.4",16.3,15.5,"28.0","-","5,395",7,"12%","",2016,37.51821,55.930215,20
NA,"University of Murcia","Spain",19.3,"28.3",11.7,28,"29.5","-","31,460",15.8,"6%","62 : 38",2016,-1.1694307,38.0182593,200
NA,"Nagasaki University","Japan",22.8,"21.9",10.8,14.3,"-","-","9,137",7.2,"4%","36 : 64",2016,129.8646586,32.7861288,95
NA,"University of Nairobi","Kenya",13.7,"45.5",9,19.5,"28.0","-","72,676",47,"1%","40 : 60",2016,36.816353,-1.280701,197
NA,"National Chengchi University","Taiwan",18.4,"33.1",12.5,14,"31.3","-","16,867",18.4,"10%","57 : 43",2016,121.576074,24.987516,56
NA,"National Chung Cheng University","Taiwan",21.3,"14.2",20.3,15.7,"40.8","-","11,989",22.9,"1%","",2016,120.4728831,23.5633761,7
NA,"National Chung Hsing University","Taiwan",20.2,"16.9",16.8,24.5,"42.5","-","15,632",20.3,"4%","39 : 61",2016,120.6748697,24.123715,169
NA,"National Taipei University of Technology","Taiwan",17.8,"16.0",14.6,16.4,"81.3","-","10,227",16.5,"3%","25 : 75",2016,121.5354983,25.0422138,199
NA,"National Taiwan Ocean University","Taiwan",18.1,"20.3",21,18.2,"49.3","-","8,240",20.9,"5%","30 : 70",2016,121.7768159,25.1501756,35
NA,"National University of Córdoba","Argentina",16,"28.1",9,12.5,"28.6","-","108,373",38.1,"2%","62 : 38",2016,-64.1855702,-31.4354855,200
NA,"National University of Science and Technology (MISiS)","Russian Federation",24.8,"33.7",17.5,10.8,"67.2","-","4,441",6.7,"13%","43 : 57",2016,37.6090761,55.728306,198
NA,"National University of Sciences and Technology","Pakistan",21.4,"31.3",7,35,"31.3","-","9,808",7.8,"3%","27 : 73",2016,72.9931107,33.6426397,7
NA,"Niigata University","Japan",21.9,"19.3",10.1,17.5,"33.0","-","12,460",8.5,"3%","37 : 63",2016,138.942539,37.86701,4
NA,"Northumbria University","United Kingdom",17.7,"55.1",10.9,29.2,"29.1","-","22,750",19.3,"16%","55 : 45",2016,-1.607595,54.9768904,188
NA,"Northwestern Polytechnical University","China",23.4,"15.2",15.4,3.5,"28.0","-","23,056",14.1,"3%","25 : 75",2016,108.9137925,34.2436153,193
