"university_name","lon","lat"
"California Institute of Technology",-118.125269,34.1376576
"University of Michigan",-83.7382241,42.2780436
"Columbia University",-73.9625727,40.8075355
"University of British Columbia",-123.2459939,49.2606052
"University of California, San Diego",-117.2340135,32.8800604
"University of Illinois at Urbana-Champaign",-88.2271615,40.1019523
"University of Göttingen",9.9374004,51.5408116
"University of Science and Technology of China",117.26217,31.838698
"LMU Munich",11.582443,48.150942
"University of Pittsburgh",-79.960835,40.4443533
"Case Western Reserve University",-81.6083838,41.5043413
"Korea Advanced Institute of Science and Technology (KAIST)",127.3640249,36.3693921
"Durham University",-1.5782029,54.7649859
"London School of Economics and Political Science",-0.1173766,51.5144077
"Royal Holloway, University of London",-0.5630625,51.425673
"Rensselaer Polytechnic Institute",-73.6788026,42.730172
"Bilkent University",32.7475962,39.8746147
"Tokyo Institute of Technology",139.6835302,35.6051229
"Eindhoven University of Technology",5.4907148,51.4486098
"University of Hawai’i at Mānoa",-157.818968,21.3
"University of California, Riverside",-117.3280644,33.9737055
"Tohoku University",140.874074,38.253834
"Pierre and Marie Curie University",2.357499,48.8471036
"Uppsala University",17.6300093,59.8509005
"Pompeu Fabra University",2.1790535,41.3793687
"Erasmus University Rotterdam",4.525585,51.91752
"University of Liverpool",-2.9655722,53.405936
"Bielefeld University",8.4963449,52.0354177
"University of Nottingham",-1.1951582,52.938636
"RWTH Aachen University",6.0656869,50.7800778
"University of Twente",6.8524128,52.2410326
"Karlsruhe Institute of Technology",8.4170303,49.0119199
"Yonsei University",126.938572,37.565784
"KTH Royal Institute of Technology",18.0706645,59.3498065
"Simon Fraser University",-122.9198833,49.2780937
"Swedish University of Agricultural Sciences",17.6628688,59.814947
"University of Rochester",-77.6260033,43.1305531
"University of São Paulo",-46.7307891,-23.5613991
"Nagoya University",136.967573,35.153491
"Technion Israel Institute of Technology",35.0231271,32.7767783
"Umeå University",20.3116101,63.8215945
"University of South Carolina",-81.0274276,33.996112
"Université Libre de Bruxelles",4.3822222,50.8132068
"Chalmers University of Technology",11.9777584,57.6883684
"University of Calgary",-114.1358007,51.0781599
"University of Hamburg",9.9846195,53.5665641
"University of Milan",9.1945843,45.4601435
"University of Milan-Bicocca",9.213452,45.518383
"University of Missouri",-92.3277375,38.9403808
"University of Padua",11.8774462,45.406766
"University of Trieste",13.7934477,45.658667
"Bangor University",-4.1299874,53.2295205
"Brunel University London",-0.4692108,51.5331581
"Johannes Kepler University of Linz",14.3219434,48.3375357
"Kyushu University",130.4250445,33.6266584
"Norwegian University of Science and Technology",10.402077,63.419499
"Queen’s University Belfast",-5.9340494,54.5844087
"Ruhr University Bochum",7.2616093,51.4456659
"Stellenbosch University",18.864447,-33.9328078
"Tilburg University",5.0419736,51.5631406
"TU Dresden",13.7289964,51.0292734
"University of Bath",-2.3272635,51.3781162
"University of Graz",15.4499126,47.0777872
"University of Kiel",10.1147022,54.3460549
"University of Southern Denmark",10.4280674,55.3706746
"University of Texas at Dallas",-96.7500993,32.9857619
"University of the Witwatersrand",28.0305044,-26.1930344
"University of Tsukuba",140.1039611,36.1087221
"University of Wollongong",150.87843,-34.4054039
"Victoria University of Wellington",174.7686615,-41.2904017
"Virginia Polytechnic Institute and State University",-80.4234167,37.2283843
"Wayne State University",-83.0665462,42.3591388
"Aberystwyth University",-4.0632712,52.4153984
"Autonomous University of Madrid",-3.6943619,40.5466983
"Hokkaido University",141.340013,43.0779575
"Istanbul Technical University",29.0253401,41.1055941
"Lomonosov Moscow State University",37.5286695,55.7039349
"Montpellier University",3.8603619,43.6319555
"Queensland University of Technology",153.0284231,-27.477356
"State University of Campinas",-47.0647206,-22.8184393
"Technical University of Darmstadt",8.6568726,49.8751004
"Tokyo Medical and Dental University (TMDU)",139.764451,35.7012897
"UiT The Arctic University of Norway",18.9712162,69.6798027
"University of Antwerp",4.4102318,51.2228097
"University of Crete",25.0826527,35.3073146
"University of Guelph",-80.2245283,43.5331548
"University of Iceland",-21.9518896,64.1396203
"University of Kansas",-95.2557961,38.9543439
"University of Kentucky",-84.5039697,38.0306511
"University of Münster",7.6131826,51.9635705
"University of Newcastle",151.7041775,-32.8927718
"University of Texas at San Antonio",-98.6207675,29.5830244
"University of Trento",11.1231165,46.0667967
"York University",-79.5018684,43.7734535
"Aalborg University",9.9818527,57.0145665
"Aalto University",24.827682,60.1866693
"Bar-Ilan University",34.8430876,32.0691989
"Binghamton University, State University of New York",-75.9697049,42.0893553
"Boğaziçi University",29.0510399,41.0847571
"Charles Darwin University",130.8689199,-12.3717852
"Charles University in Prague",14.4234889,50.0871106
"George Mason University",-77.3115849,38.8343675
"Indian Institute of Technology Bombay",72.9132679,19.1334302
"Jagiellonian University",19.9341074,50.0609623
"Keele University",-2.272053,53.0034373
"Keio University",139.7429376,35.6489643
"Lehigh University",-75.3782832,40.6069087
"Linköping University",15.5760072,58.3978364
"National Taiwan University of Science and Technology (Taiwan Tech)",121.5416515,25.0130679
"Plymouth University",-4.1406465,50.3745284
"Polytechnic University of Milan",9.2272764,45.4781071
"Sapienza University of Rome",12.5144384,41.9037626
"Shanghai Jiao Tong University",121.4337784,31.0252201
"Sharif University of Technology",51.351593,35.7036366
"Sungkyunkwan University (SKKU)",126.993606,37.588227
"University College Cork",-8.4932738,51.8921099
"University of Aveiro",-8.657506,40.6303024
"University of Canterbury",172.5839233,-43.5235375
"University of Eastern Finland",29.744203,62.603598
"University of Ferrara",11.6261625,44.8334234
"University of Hertfordshire",-0.2467997,51.7617561
"University of Houston",-95.3422334,29.7199489
"University of Hull",-0.3673875,53.7714552
"University of Liège",5.559064,50.5830803
"University of Manitoba",-97.1366259,49.8075008
"University of Maryland, Baltimore County",-76.7111956,39.2551135
"University of Modena and Reggio Emilia",10.9279258,44.6451116
"University of Oklahoma",-97.4457137,35.2058936
"University of Pisa",10.3988593,43.7167235
"University of Porto",-8.6156998,41.1465479
"University of South Florida",-82.4138539,28.0587031
"University of Stirling",-3.918879,56.1459171
"University of Surrey",-0.5904827,51.2423009
"University of Tampere",23.7787354,61.4937448
"University of Tasmania",147.3266391,-42.9035119
"University of Valencia",-0.3593863,39.4793254
"University of Waikato",175.3184579,-37.7868611
"University of Warsaw",21.0186012,52.2403463
"Vienna University of Technology",16.3684626,48.1986546
"Vrije Universiteit Brussel",4.394886,50.821658
"Washington State University",-117.1542121,46.7319225
"Aston University",-1.8902314,52.4869642
"Auburn University",-85.4951663,32.5933574
"Clemson University",-82.8391551,34.680476
"Curtin University",115.8944182,-32.0061951
"Deakin University",145.1149452,-37.8477381
"Flinders University",138.5713281,-35.0244952
"Georgia State University",-84.3852819,33.753068
"Griffith University",153.053674,-27.5536791
"Harbin Institute of Technology",126.633425,45.747047
"Heriot-Watt University",-3.3203494,55.9096602
"Hiroshima University",132.714908,34.403123
"Kansas State University",-96.5847249,39.1974437
"Kobe University",135.2353953,34.7256185
"Kyung Hee University",127.052544,37.5961951
"La Trobe University",145.0483946,-37.7207268
"Leibniz University of Hanover",9.7196989,52.3829641
"Liverpool John Moores University",-2.9712846,53.4034017
"Loughborough University",-1.224632,52.769227
"Mahidol University",100.3233845,13.7947609
"Massey University",175.619553,-40.3867649
"Michigan Technological University",-88.5445293,47.1170498
"National Central University",121.1925163,24.9694808
"National Taiwan Ocean University",121.7768159,25.1501756
"National University of Ireland, Galway",-9.061603,53.276645
"National University of Ireland, Maynooth",-6.6000704,53.3838822
"New Jersey Institute of Technology",-74.1778803,40.7425572
"New University of Lisbon",-9.160333,38.733682
"Old Dominion University",-76.3035628,36.888947
"Polytechnic University of Catalonia",2.1132804,41.388004
"Polytechnic University of Turin",7.6620529,45.0627948
"Polytechnic University of Valencia",-0.341067,39.481059
"Pontifical Catholic University of Chile",-70.6407933,-33.4411279
"Saint Petersburg State University",30.2989198,59.941894
"Swansea University",-3.982132,51.608392
"Swinburne University of Technology",145.0389546,-37.8221504
"Tokyo University of Agriculture and Technology",139.478664,35.683986
"University of Bari Aldo Moro",16.8684745,41.1205546
"University of Coimbra",-8.4241509,40.2089072
"University of Idaho",-117.0126084,46.7288124
"University of Kent",1.071629,51.298536
"University of Paris North – Paris 13",2.341461,48.956209
"University of Salento",18.1672669,40.3495599
"University of South Australia",138.6066669,-34.9201652
"University of Strathclyde",-4.2428535,55.8628285
"University of Tartu",26.7198658,58.3810843
"University of Turku",22.2851138,60.4562974
"University of Wyoming",-105.5796706,41.3130972
"University of Zaragoza",-0.90034,41.64213
"Waseda University",139.7208045,35.7092082
"Wuhan University",114.3643219,30.5360485
"Yuan Ze University",121.2664937,24.9699006
"Paris-Sud University",2.1764839,48.6976847
"Joseph Fourier University",4.915197,44.91763
"Johannes Gutenberg University of Mainz",8.2415552,49.9926403
"St George’s, University of London",-0.1745034,51.4271937
"University of Erlangen-Nuremberg",11.0045507,49.5978804
"Florida Institute of Technology",-80.623022,28.0646888
"Indian Institute of Technology Kharagpur",87.3105311,22.3149274
"Koç University",29.0732704,41.2053128
"Laval University",-71.2747424,46.7817463
"Mines ParisTech",2.339632,48.845585
"National Research Nuclear University MePhI",37.6638741,55.649567
"University of Connecticut",-72.2539805,41.8077414
"University of Oregon",-123.0726055,44.0448302
"Bayreuth University",11.585831,49.9288196
"Oregon State University",-123.2794442,44.5637806
"University of Montana",-113.9852081,46.8600672
"University of Turin",7.6889006,45.069428
"Claude Bernard University Lyon 1",4.862939,45.779462
"King Abdulaziz University",39.2457769,21.4938519
"Medical University of Vienna",16.351571,48.219673
"Murdoch University",115.8329519,-32.0686354
"National Cheng Kung University",120.2180947,22.9996873
"North Carolina State University",-78.6820946,35.7846633
"Renmin University of China",116.3188145,39.9696062
"University of Fribourg",7.152006,46.806357
"University of Pavia",9.1555362,45.1864597
"University of Portsmouth",-1.0935686,50.7951287
"University of Vermont",-73.1964637,44.4778528
"Indian Institute of Technology Roorkee",77.8965787,29.8648599
"King Mongkut’s University of Technology Thonburi",100.4949226,13.6517367
"National Autonomous University of Mexico",-99.1843676,19.3188895
"Paris Dauphine University",2.273451,48.870029
"Southern Methodist University",-96.7845175,32.8412178
"Temple University",-75.1575243,39.9803336
"University of Duisburg-Essen",6.8009529,51.4277477
"University of Jyväskylä",25.7316335,62.2365317
"University of KwaZulu-Natal",30.9807272,-29.8674219
"University of Minho",-8.3966231,41.5598965
"University of Technology Sydney",151.2004942,-33.8832376
"University of the Andes, Colombia",-74.065012,4.602968
"University of Vigo",-8.6833929,42.1694456
"Panjab University",76.7653924,30.7606188
"University of Cologne",6.9288192,50.9281625
"University of Nebraska-Lincoln",-96.7004763,40.8201966
"University of Alaska Fairbanks",-147.8364611,64.8575556
"Wuhan University of Technology",114.356477,30.610732
"China Medical University, Taiwan",120.6801328,24.1562767
"Hanyang University",127.0453219,37.5572321
"Indian Institute of Technology Delhi",77.1926283,28.5449756
"Indian Institute of Technology Kanpur",80.2329,26.5123388
"King Saud University",46.6191078,24.716241
"San Diego State University",-117.0718893,32.7757217
"University of Florence",11.259765,43.7776426
"University of Navarra",-1.6582784,42.8024726
"University of Rovira i Virgili",1.260497,41.1196609
"Scuola Normale Superiore di Pisa",10.4003296,43.7196006
"Syracuse University",-76.1351158,43.0391534
"Sabancı University",29.3748667,40.8928831
"Technical University of Berlin",13.3269446,52.5125322
"Federico Santa María Technical University",-71.5956131,-33.0347298
"University of Bremen",8.85204,53.106758
"University of New Mexico",-106.6197812,35.0843187
"Indian Institute of Science",77.5671423,13.0218597
"Lappeenranta University of Technology",28.0941671,61.0648818
"University of Macau",113.5466489,22.1290705
"Illinois Institute of Technology",-87.6270059,41.8348731
"Novosibirsk State University",83.0943884,54.8477462
"University of Marrakech Cadi Ayyad",-8.0038775,31.6652074
"University of Nebraska Medical Center",-95.9778714,41.2551186
"University of Stuttgart",9.1747024,48.7815352
"Ewha Womans University",126.9468294,37.5618577
"Isfahan University of Technology",51.5330109,32.7200351
"Royal College of Surgeons in Ireland",-6.261986,53.338985
"University of Lisbon",-9.1567472,38.7530019
"University of Rome III",12.4795619,41.8620534
"University of Seoul",127.0587771,37.5838657
"Western Sydney University",151.0251472,-33.8118321
"University of Mannheim",8.4622333,49.4837106
"Scuola Superiore Sant’Anna",10.4027859,43.7209661
"University of Luxembourg",5.948386,49.504254
"Charité - Universitätsmedizin Berlin",13.3766245,52.5264618
"Copenhagen Business School",12.529679,55.681611
"Florida State University",-84.2984889,30.4418778
"Oregon Health and Science University",-122.6859419,45.499045
"Paris Descartes University",2.340761,48.851251
"Peter the Great St Petersburg Polytechnic University",30.372899,60.007357
"Royal Veterinary College",-0.1335335,51.536454
"Rush University",-87.6695315,41.8736016
"Aix-Marseille University",5.3591422,43.2922146
"University of Bordeaux",-0.5707764,44.830485
"James Cook University",146.7580624,-19.3275726
"Justus Liebig University Giessen",8.6771313,50.5804427
"Saint Louis University",-90.2373647,38.6354092
"University of Tennessee, Knoxville",-83.9294564,35.9544013
"Tomsk Polytechnic University",84.950135,56.465427
"University of Greifswald",13.3746917,54.0949312
"Gwangju Institute of Science and Technology",126.8407202,35.2272692
"University of Hohenheim",9.2139326,48.7119251
"Kazan Federal University",49.1214348,55.790447
"Medical College of Wisconsin",-88.020103,43.043967
"University of Naples Federico II",14.2578058,40.845492
"Örebro University",15.24923,59.254276
"Technical University of Dortmund",7.4128386,51.4926981
"Toulouse 1 Capitole University",1.4371122,43.6067724
"VŠB - Technical University of Ostrava",18.1636092,49.8336826
"University of Cyprus",33.3770175,35.1600014
"University of St Gallen",9.3755673,47.4321575
"Graz University of Technology",15.450342,47.0692742
"Instituto Superior Técnico Lisboa",-9.138705,38.7368192
"University of Oulu",25.4662935,65.0593177
"Panthéon-Sorbonne University – Paris 1",2.344468,48.8469373
"University of South Dakota",-96.925271,42.784118
"Lille 2 University – Health and Law",3.0838866,50.6115951
"Verona University",11.004076,45.43844
"American University",-77.088468,38.93741
"Bournemouth University",-1.8962463,50.742981
"University of Brescia",10.217297,45.537837
"Brno University of Technology",16.6033808,49.2017233
"Ca’ Foscari University of Venice",12.3261971,45.4345319
"University of Cagliari",9.1149594,39.2175754
"Catholic University of the Sacred Heart",9.1771785,45.4621325
"City University London",-0.1025445,51.5278249
"Complutense University of Madrid",-3.7285872,40.4478246
"Concordia University",-117.810409,33.65461
"Dublin City University",-6.2567437,53.3861818
"East China University of Science and Technology",121.4251069,31.1408757
"Florida International University",-80.3739487,25.7565756
"University of Genoa",8.9267336,44.4149149
"Howard University",-77.0194377,38.9226843
"Indian Institute of Technology Madras",80.2339031,12.9908081
"University of Ioannina",20.8450898,39.6158593
"Iran University of Science and Technology",51.5023103,35.742474
"University of Kaiserslautern",7.7556483,49.4253647
"Louisiana State University",-91.1800023,30.4132579
"Makerere University",32.5709881,0.329183
"Marche Polytechnic University",13.5127759,43.6171442
"University of Nantes",-1.5559718,47.2095499
"National and Kapodistrian University of Athens",23.7786871,37.968196
"National Institute of Applied Sciences of Lyon (INSA Lyon)",4.878273,45.782938
"National Yang-Ming University",121.5137024,25.1230017
"University of Neuchâtel",6.9387031,46.9938549
"University of Nice Sophia Antipolis",7.2896737,43.7099458
"The Open University",-0.7104769,52.0250914
"Oxford Brookes University",-1.29121,51.7399245
"University of Palermo",13.369838,38.11779
"University of Parma",10.3257786,44.8011856
"RMIT University",144.9639667,-37.8085495
"University of Rome II – Tor Vergata",12.5978728,41.850142
"University of San Francisco",-122.450683,37.7766466
"University of Saskatchewan",-106.6313582,52.1334003
"University of Siena",11.3330265,43.3191557
"Southern Cross University",153.2994676,-28.8186387
"Tampere University of Technology",23.8586408,61.4497952
"University of Ulsan",129.256337,35.543932
"Ulster University",-6.6751586,55.1497581
"Université du Québec à Montréal",-73.5605955,45.5125995
"Universiti Teknologi Malaysia",103.6381827,1.55849
"University of Urbino Carlo Bo",12.6367849,43.7243069
"Xiamen University",118.097855,24.4373484
"American University of Beirut",35.4811142,33.90113
"Amirkabir University of Technology",51.4091693,35.7040861
"University of Arkansas",-94.1736551,36.0678324
"Babeş-Bolyai University",23.5912762,46.7677955
"University of the Basque Country",-2.673645,42.838485
"Bauman Moscow State Technical University",37.6839719,55.7668614
"Ben-Gurion University of the Negev",34.801461,31.262218
"Blaise Pascal University",3.1123259,45.7640856
"University of Burgundy",5.0703447,47.3117503
"University of Canberra",149.0840869,-35.2381609
"University of Catania",15.0864981,37.5035647
"Central Queensland University",150.5185512,-23.324376
"University of Chile",-70.6509277,-33.4445204
"China Agricultural University",116.353052,40.004171
"Chung-Ang University",126.956954,37.504147
"Czech Technical University in Prague",14.3912841,50.1030364
"De Montfort University",-1.139599,52.6291014
"East China Normal University",121.4066077,31.227812
"Edith Cowan University",115.7732882,-31.7524053
"Federal University of Rio de Janeiro",-43.1753638,-22.9541412
"University of Granada",-3.600767,37.183853
"University of Haifa",35.0195184,32.7614296
"Huazhong University of Science and Technology",114.413666,30.507905
"Indian Institute of Technology Guwahati",91.6950635,26.1929025
"Jadavpur University",88.3698181,22.4996111
"Kanazawa University",136.7087378,36.5459854
"King Fahd University of Petroleum and Minerals",50.1445651,26.3104682
"University of La Laguna",-16.3127175,28.4848482
"University of Limerick",-8.5745593,52.6687383
"Manchester Metropolitan University",-2.238469,53.471055
"University of Maribor",15.6433073,46.5591885
"Masaryk University",16.605384,49.1986299
"Memorial University of Newfoundland",-52.7329053,47.5737975
"Missouri University of Science and Technology",-91.7755727,37.953451
"Montana State University",-111.049325,45.667548
"Monterrey Institute of Technology and Higher Education",-121.8970109,36.5993006
"National Taiwan Normal University",121.5273658,25.0254571
"National Technical University of Athens",23.7827066,37.9783769
"New Mexico State University",-106.7447566,32.2847481
"University of North Carolina at Greensboro",-79.8098429,36.0674908
"Oklahoma State University",-97.0737222,36.1270236
"Osaka City University",135.505417,34.5919232
"Otto von Guericke University of Magdeburg",11.647715,52.1401928
"University of Oviedo",-5.8462773,43.3617179
"Palacký University in Olomouc",17.2600153,49.5954268
"Pontifical Catholic University of Rio de Janeiro (PUC-Rio)",-43.2333608,-22.9782927
"Portland State University",-122.6846429,45.5119323
"University of Pretoria",28.2314476,-25.7545492
"Pusan National University",129.0797639,35.2336948
"Quaid-i-azam University",73.1380962,33.7462228
"University of Regina",-104.58849,50.4170134
"University of Rennes 1",-1.67296,48.1159299
"University of Salamanca",-5.6669251,40.9613376
"University of Santiago de Compostela",-8.545475,42.8799935
"Semmelweis University",19.0673266,47.4873553
"University of Seville",-5.9912307,37.3807579
"Université de Sherbrooke",-71.9255204,45.3768886
"Soochow University",120.639406,31.3094277
"South China University of Technology",113.344683,23.151326
"Tallinn University of Technology",24.671431,59.395884
"Tehran University of Medical Sciences",51.3941258,35.7058568
"University of Texas at Arlington",-97.1140881,32.7311482
"Tianjin University",117.1748329,39.1110824
"University of Toledo",-83.6125896,41.662156
"Tongji University",121.5045889,31.2823103
"University of Tulsa",-95.9445808,36.1511173
"United Arab Emirates University",55.6765345,24.1994378
"University of Wisconsin-Milwaukee",-87.8819686,43.078263
"Xi’an Jiaotong University",108.98371,34.250575
"University of A Coruña",-8.412419,43.3328827
"Adam Mickiewicz University",16.915402,52.4083974
"AGH University of Science and Technology",19.9136192,50.0668858
"Ajou University",127.0463559,37.2821251
"University of Alcalá",-3.3628674,40.4824722
"Alexandru Ioan Cuza University",27.5721117,47.1744351
"Aligarh Muslim University",78.0781901,27.9135016
"American University of Sharjah",55.4927023,25.3120502
"Amrita University",76.9025656,10.9001731
"Anadolu University",30.4991884,39.7912871
"Andhra University",83.320085,17.728816
"University of Antioquia",-75.5691113,6.2669533
"Aristotle University of Thessaloniki",22.9592224,40.6308283
"Asia University, Taiwan",120.686421,24.046532
"Athens University of Economics and Business",23.7324354,37.9940805
"Auckland University of Technology",174.7673188,-36.8532194
"Austral University of Chile",-73.2516591,-39.8061639
"Beijing Institute of Technology",116.311256,39.957127
"Belarusian State University",27.5460609,53.8938988
"University of Belgrade",20.4575676,44.8184339
"Birla Institute of Technology and Science, Pilani",75.5869784,28.3639812
"University of Bradford",-1.763463,53.790788
"University of Brasília",-47.8706311,-15.7631573
"University of Brighton",-0.119365,50.842116
"University of Bucharest",26.1016731,44.4354447
"Budapest University of Technology and Economics",19.0554834,47.4813261
"Cairo University",31.2068151,30.0223946
"University of Calcutta",88.3629295,22.5747806
"California State University, Long Beach",-118.1140904,33.7838235
"Capital Medical University",116.352877,39.865173
"University of Castilla-La Mancha",-3.9266844,38.9933175
"University of Central Lancashire",-2.7084395,53.7619242
"University of Cergy-Pontoise",2.074954,49.039076
"Chang Gung University",121.389184,25.0341666
"Carlos III University of Madrid",-3.7268114,40.3161385
"University of Chemistry and Technology, Prague",14.389611,50.103301
"Chiang Mai University",98.9546758,18.8082874
"Chiba University",140.1024122,35.6262467
"China University of Geosciences (Wuhan)",114.4020037,30.518184
"China University of Petroleum (Beijing)",116.247116,40.219466
"Chonbuk National University",127.1293628,35.8468291
"Chongqing University",106.454213,29.560254
"Chonnam National University",NA,NA
"Chulalongkorn University",100.5320528,13.7383777
"Chung Yuan Christian University",121.2428031,24.9569013
"Chungnam National University",127.3459548,36.3699872
"Comenius University in Bratislava",17.115559,48.1411309
"Coventry University",-1.5037461,52.4071747
"Dalian University of Technology",121.529021,38.880381
"University of Debrecen",21.6214756,47.5535039
"University of Delhi",77.1638282,28.5842523
"University of Dhaka",90.3924947,23.7315492
"Dublin Institute of Technology",-6.2676448,53.3386609
"Ehime University",132.7715089,33.8502377
"University of Electronic Science and Technology of China",104.100361,30.675104
"Eötvös Loránd University",19.0585445,47.4905698
"Erciyes University",35.5301767,38.7073405
"Federal University of Bahia",-38.5089752,-13.0024602
"Federal University of Minas Gerais",-43.9663841,-19.8690878
"Federal University of Paraná (UFPR)",-49.2617658,-25.4269081
"Federal University of Rio Grande do Sul",-51.2203322,-30.0335453
"Federal University of Santa Catarina",-48.5235907,-27.599144
"Federal University of São Carlos",-47.8811216,-21.979011
"Federal University of Viçosa",-42.8682513,-20.7643812
"Federal University of Lavras",-44.9775718,-21.2292703
"Feng Chia University",120.6467054,24.1788155
"Fu Jen Catholic University",121.4327592,25.0362991
"Gdańsk University of Technology",18.6163277,54.3716751
"University of Ghana",-0.1962244,5.650562
"Gifu University",136.7365752,35.4662236
"Glasgow Caledonian University",-4.2508041,55.8661538
"University of Greenwich",-0.0059828,51.4833425
"Hacettepe University",32.7299184,39.8705295
"University of Huddersfield",-1.7770916,53.6431171
"Hunan University",112.943822,28.179012
"University of Ibadan",3.8986279,7.4454027
"University of Indonesia",106.8295587,-6.3680739
"Inha University",126.653116,37.449627
"I-Shou University",120.4063526,22.7258536
"Istanbul University",28.961838,41.0126037
"Jilin University",125.348658,43.873742
"University of Jordan",35.8730077,32.0134626
"Jordan University of Science and Technology",35.9912257,32.4950392
"Juntendo University",139.7608345,35.7021299
"K.N. Toosi University of Technology",51.4127853,35.7627046
"Kaohsiung Medical University",120.3097772,22.6473733
"Khon Kaen University",102.8266222,16.4731646
"Kingston University",-0.303931,51.4031134
"Kinki University",135.587042,34.65123
"Konkuk University",127.0793428,37.5407625
"Kumamoto University",130.7278725,32.8140382
"Kyungpook National University",128.6113282,35.8900521
"Kyushu Institute of Technology",130.8392259,33.8941523
"University of Latvia",24.1163132,56.9508098
"Lille 1 University – Science and Technology",3.138063,50.609049
"University of Lincoln",-0.5504171,53.2287474
"University of Ljubljana",14.5041552,46.0491938
"Miami University",-84.7308768,39.5105334
"Middlesex University",-0.2282466,51.5893495
"Moscow Institute of Physics and Technology",37.51821,55.930215
"University of Murcia",-1.1694307,38.0182593
"Nagasaki University",129.8646586,32.7861288
"University of Nairobi",36.816353,-1.280701
"National Chengchi University",121.576074,24.987516
"National Chung Cheng University",120.4728831,23.5633761
"National Chung Hsing University",120.6748697,24.123715
"National Taipei University of Technology",121.5354983,25.0422138
"National University of Córdoba",-64.1855702,-31.4354855
"National University of Science and Technology (MISiS)",37.6090761,55.728306
"National University of Sciences and Technology",72.9931107,33.6426397
"Niigata University",138.942539,37.86701
"Northumbria University",-1.607595,54.9768904
"Northwestern Polytechnical University",108.9137925,34.2436153
"Nottingham Trent University",-1.1524723,52.9579294
"Oakland University",-83.2073803,42.6695562
"Ocean University of China",120.335285,36.061242
"Ohio University",-82.1013889,39.324358
"Okayama University",133.9222225,34.6873868
"Osaka Prefecture University",135.5069805,34.5454313
"University of Pardubice",15.7694,50.04816
"Paris-Sorbonne University – Paris 4",2.3432774,48.8484556
"University of Patras",21.7871827,38.28657
"University of Pécs",18.237722,46.0741828
"Pontifical Catholic University of Paraná",-49.2520094,-25.4510637
"Pontifical Catholic University of Rio Grande do Sul (PUCRS)",-51.1743354,-30.0606457
"Pontifical Catholic University of Valparaíso",-71.605872,-33.044407
"Prince of Songkla University",100.4992064,7.0064179
"Qatar University",51.4871693,25.3769499
"Rio de Janeiro State University (UERJ)",-43.236132,-22.911174
"Rochester Institute of Technology",-77.6705143,43.0861017
"Saitama University",139.608483,35.8654477
"University of Salford",-2.270755,53.484586
"University of Santiago, Chile (USACH)",-70.6861315,-33.4517605
"São Paulo State University (UNESP)",-46.6409474,-23.5479026
"Savitribai Phule Pune University",73.824618,18.552338
"University of Science and Technology Beijing",116.357096,39.990249
"Sejong University",127.075092,37.549035
"Shahid Beheshti University",51.3946864,35.7990628
"Shanghai University",121.3930893,31.3149209
"Shantou University",116.639943,23.411124
"Sheffield Hallam University",-1.4660659,53.3790519
"Shinshu University",137.9789403,36.2500574
"Showa University",139.7037786,35.6082833
"Sichuan University",104.1872595,30.8232956
"University of Silesia in Katowice",19.0287157,50.2607501
"Slovak University of Technology in Bratislava",17.1177,48.154573
"Sogang University",126.9407529,37.5513365
"Sophia University",139.732278,35.682982
"University of South Africa",28.1992637,-25.7676588
"Southern Federal University",39.728334,47.224719
"University of Southern Mississippi",-89.3356963,31.3303296
"University of Southern Queensland",151.9311441,-27.6029207
"Suez Canal University",32.269729,30.620533
"Sultan Qaboos University",58.1730322,23.5909657
"Suranaree University of Technology",102.0201115,14.881406
"University of Szeged",20.1461195,46.2501561
"Taipei Medical University",121.5616183,25.0253544
"Taras Shevchenko National University of Kyiv",30.5104024,50.4420868
"Technical University of Madrid",-3.7192798,40.4486372
"University of Tehran",51.386103,35.7286849
"University of Texas at El Paso",-106.5046216,31.7708544
"Texas Tech University",-101.8782822,33.5842591
"Tokai University",139.6845412,35.6644464
"Tokushima University",134.559832,34.070001
"Tokyo University of Marine Science and Technology",139.7470855,35.6268386
"Tokyo University of Science",139.741398,35.699399
"Tomsk State University",84.9478675,56.4694917
"Tottori University",134.1733411,35.5150797
"Toyohashi University of Technology",137.4086346,34.7017563
"Universiti Kebangsaan Malaysia",101.7774225,2.929997
"Universiti Putra Malaysia",101.71629,2.991686
"Universiti Sains Malaysia",100.3025177,5.3559337
"Universiti Teknologi MARA",101.5037611,3.0696089
"Ural Federal University",60.653668,56.844087
"V.N. Karazin Kharkiv National University",36.228139,50.004537
"Vilnius University",25.2876469,54.6825757
"Warsaw University of Technology",21.0080857,52.2212012
"University of West Bohemia",13.351554,49.723644
"University of the West of England",-2.5483131,51.5017572
"West University of Timişoara",21.2319146,45.7471643
"University of Westminster",-0.1429409,51.5169302
"Xidian University",108.837221,34.128921
"Yeungnam University",128.7575746,35.8322424
"Yıldız Technical University",29.0106553,41.0520861
"Yokohama City University",139.618239,35.33385
"Yokohama National University",139.592022,35.4729252
