"university_name","country","lon","lat"
"University of Westminster","United Kingdom",-0.1429409,51.5169302
"Xidian University","China",108.837221,34.128921
"Yeungnam University","South Korea",128.7575746,35.8322424
"Yıldız Technical University","Turkey",29.0106553,41.0520861
"Yokohama City University","Japan",139.618239,35.33385
"Yokohama National University","Japan",139.592022,35.4729252
